$GPGGA,205353.470,4836.794,N,00225.693,E,1,12,1.0,0.0,M,0.0,M,,*65
$GPGSA,A,3,01,02,03,04,05,06,07,08,09,10,11,12,1.0,1.0,1.0*30
$GPRMC,205353.470,A,4836.794,N,00225.693,E,118.3,291.9,021220,000.0,W*7A
$GPGGA,205354.470,4836.811,N,00225.650,E,1,12,1.0,0.0,M,0.0,M,,*6F
$GPGSA,A,3,01,02,03,04,05,06,07,08,09,10,11,12,1.0,1.0,1.0*30
$GPRMC,205354.470,A,4836.811,N,00225.650,E,168.8,004.7,021220,000.0,W*7C
$GPGGA,205355.470,4836.858,N,00225.654,E,1,12,1.0,0.0,M,0.0,M,,*67
$GPGSA,A,3,01,02,03,04,05,06,07,08,09,10,11,12,1.0,1.0,1.0*30
$GPRMC,205355.470,A,4836.858,N,00225.654,E,048.5,245.3,021220,000.0,W*79
$GPGGA,205356.470,4836.850,N,00225.638,E,1,12,1.0,0.0,M,0.0,M,,*66
$GPGSA,A,3,01,02,03,04,05,06,07,08,09,10,11,12,1.0,1.0,1.0*30
$GPRMC,205356.470,A,4836.850,N,00225.638,E,141.7,210.8,021220,000.0,W*79
$GPGGA,205357.470,4836.814,N,00225.616,E,1,12,1.0,0.0,M,0.0,M,,*6B
$GPGSA,A,3,01,02,03,04,05,06,07,08,09,10,11,12,1.0,1.0,1.0*30
$GPRMC,205357.470,A,4836.814,N,00225.616,E,156.3,280.7,021220,000.0,W*70
$GPGGA,205358.470,4836.826,N,00225.553,E,1,12,1.0,0.0,M,0.0,M,,*67
$GPGSA,A,3,01,02,03,04,05,06,07,08,09,10,11,12,1.0,1.0,1.0*30
$GPRMC,205358.470,A,4836.826,N,00225.553,E,134.4,288.8,021220,000.0,W*78
$GPGGA,205359.470,4836.843,N,00225.502,E,1,12,1.0,0.0,M,0.0,M,,*61
$GPGSA,A,3,01,02,03,04,05,06,07,08,09,10,11,12,1.0,1.0,1.0*30
$GPRMC,205359.470,A,4836.843,N,00225.502,E,163.7,310.2,021220,000.0,W*75
$GPGGA,205400.470,4836.879,N,00225.460,E,1,12,1.0,0.0,M,0.0,M,,*66
$GPGSA,A,3,01,02,03,04,05,06,07,08,09,10,11,12,1.0,1.0,1.0*30
$GPRMC,205400.470,A,4836.879,N,00225.460,E,150.4,258.8,021220,000.0,W*76
$GPGGA,205401.470,4836.867,N,00225.399,E,1,12,1.0,0.0,M,0.0,M,,*69
$GPGSA,A,3,01,02,03,04,05,06,07,08,09,10,11,12,1.0,1.0,1.0*30
$GPRMC,205401.470,A,4836.867,N,00225.399,E,166.2,172.1,021220,000.0,W*78
$GPGGA,205402.470,4836.821,N,00225.406,E,1,12,1.0,0.0,M,0.0,M,,*69
$GPGSA,A,3,01,02,03,04,05,06,07,08,09,10,11,12,1.0,1.0,1.0*30
$GPRMC,205402.470,A,4836.821,N,00225.406,E,129.3,112.1,021220,000.0,W*74
$GPGGA,205403.470,4836.802,N,00225.452,E,1,12,1.0,0.0,M,0.0,M,,*68
$GPGSA,A,3,01,02,03,04,05,06,07,08,09,10,11,12,1.0,1.0,1.0*30
$GPRMC,205403.470,A,4836.802,N,00225.452,E,112.6,069.5,021220,000.0,W*71
$GPGGA,205404.470,4836.817,N,00225.493,E,1,12,1.0,0.0,M,0.0,M,,*66
$GPGSA,A,3,01,02,03,04,05,06,07,08,09,10,11,12,1.0,1.0,1.0*30
$GPRMC,205404.470,A,4836.817,N,00225.493,E,110.4,091.1,021220,000.0,W*7C
$GPGGA,205405.470,4836.816,N,00225.540,E,1,12,1.0,0.0,M,0.0,M,,*69
$GPGSA,A,3,01,02,03,04,05,06,07,08,09,10,11,12,1.0,1.0,1.0*30
$GPRMC,205405.470,A,4836.816,N,00225.540,E,303.1,107.8,021220,000.0,W*71
$GPGGA,205406.470,4836.780,N,00225.654,E,1,12,1.0,0.0,M,0.0,M,,*6C
$GPGSA,A,3,01,02,03,04,05,06,07,08,09,10,11,12,1.0,1.0,1.0*30
$GPRMC,205406.470,A,4836.780,N,00225.654,E,392.3,109.4,021220,000.0,W*7C
$GPGGA,205407.470,4836.729,N,00225.800,E,1,12,1.0,0.0,M,0.0,M,,*61
$GPGSA,A,3,01,02,03,04,05,06,07,08,09,10,11,12,1.0,1.0,1.0*30
$GPRMC,205407.470,A,4836.729,N,00225.800,E,458.8,101.5,021220,000.0,W*72
$GPGGA,205408.470,4836.691,N,00225.984,E,1,12,1.0,0.0,M,0.0,M,,*61
$GPGSA,A,3,01,02,03,04,05,06,07,08,09,10,11,12,1.0,1.0,1.0*30
$GPRMC,205408.470,A,4836.691,N,00225.984,E,290.9,102.5,021220,000.0,W*72
$GPGGA,205409.470,4836.666,N,00226.100,E,1,12,1.0,0.0,M,0.0,M,,*6F
$GPGSA,A,3,01,02,03,04,05,06,07,08,09,10,11,12,1.0,1.0,1.0*30
$GPRMC,205409.470,A,4836.666,N,00226.100,E,310.1,099.6,021220,000.0,W*7D
$GPGGA,205410.470,4836.645,N,00226.226,E,1,12,1.0,0.0,M,0.0,M,,*61
$GPGSA,A,3,01,02,03,04,05,06,07,08,09,10,11,12,1.0,1.0,1.0*30
$GPRMC,205410.470,A,4836.645,N,00226.226,E,302.7,099.0,021220,000.0,W*70
$GPGGA,205411.470,4836.625,N,00226.349,E,1,12,1.0,0.0,M,0.0,M,,*6E
$GPGSA,A,3,01,02,03,04,05,06,07,08,09,10,11,12,1.0,1.0,1.0*30
$GPRMC,205411.470,A,4836.625,N,00226.349,E,087.8,098.1,021220,000.0,W*7E
$GPGGA,205412.470,4836.620,N,00226.386,E,1,12,1.0,0.0,M,0.0,M,,*6B
$GPGSA,A,3,01,02,03,04,05,06,07,08,09,10,11,12,1.0,1.0,1.0*30
$GPRMC,205412.470,A,4836.620,N,00226.386,E,130.7,118.5,021220,000.0,W*74
$GPGGA,205413.470,4836.597,N,00226.428,E,1,12,1.0,0.0,M,0.0,M,,*66
$GPGSA,A,3,01,02,03,04,05,06,07,08,09,10,11,12,1.0,1.0,1.0*30
$GPRMC,205413.470,A,4836.597,N,00226.428,E,095.2,080.0,021220,000.0,W*77
$GPGGA,205414.470,4836.604,N,00226.467,E,1,12,1.0,0.0,M,0.0,M,,*63
$GPGSA,A,3,01,02,03,04,05,06,07,08,09,10,11,12,1.0,1.0,1.0*30
$GPRMC,205414.470,A,4836.604,N,00226.467,E,111.6,030.0,021220,000.0,W*70
$GPGGA,205415.470,4836.633,N,00226.483,E,1,12,1.0,0.0,M,0.0,M,,*6C
$GPGSA,A,3,01,02,03,04,05,06,07,08,09,10,11,12,1.0,1.0,1.0*30
$GPRMC,205415.470,A,4836.633,N,00226.483,E,081.5,283.4,021220,000.0,W*7A
$GPGGA,205416.470,4836.640,N,00226.451,E,1,12,1.0,0.0,M,0.0,M,,*64
$GPGSA,A,3,01,02,03,04,05,06,07,08,09,10,11,12,1.0,1.0,1.0*30
$GPRMC,205416.470,A,4836.640,N,00226.451,E,062.5,277.6,021220,000.0,W*76
$GPGGA,205417.470,4836.644,N,00226.425,E,1,12,1.0,0.0,M,0.0,M,,*62
$GPGSA,A,3,01,02,03,04,05,06,07,08,09,10,11,12,1.0,1.0,1.0*30
$GPRMC,205417.470,A,4836.644,N,00226.425,E,079.1,227.1,021220,000.0,W*7C
$GPGGA,205418.470,4836.626,N,00226.406,E,1,12,1.0,0.0,M,0.0,M,,*68
$GPGSA,A,3,01,02,03,04,05,06,07,08,09,10,11,12,1.0,1.0,1.0*30
$GPRMC,205418.470,A,4836.626,N,00226.406,E,043.0,186.1,021220,000.0,W*76
$GPGGA,205419.470,4836.614,N,00226.405,E,1,12,1.0,0.0,M,0.0,M,,*6B
$GPGSA,A,3,01,02,03,04,05,06,07,08,09,10,11,12,1.0,1.0,1.0*30
$GPRMC,205419.470,A,4836.614,N,00226.405,E,052.2,119.3,021220,000.0,W*73
$GPGGA,205420.470,4836.605,N,00226.422,E,1,12,1.0,0.0,M,0.0,M,,*64
$GPGSA,A,3,01,02,03,04,05,06,07,08,09,10,11,12,1.0,1.0,1.0*30
$GPRMC,205420.470,A,4836.605,N,00226.422,E,052.1,109.5,021220,000.0,W*78
$GPGGA,205421.470,4836.598,N,00226.441,E,1,12,1.0,0.0,M,0.0,M,,*67
$GPGSA,A,3,01,02,03,04,05,06,07,08,09,10,11,12,1.0,1.0,1.0*30
$GPRMC,205421.470,A,4836.598,N,00226.441,E,081.5,076.6,021220,000.0,W*7B
$GPGGA,205422.470,4836.605,N,00226.473,E,1,12,1.0,0.0,M,0.0,M,,*62
$GPGSA,A,3,01,02,03,04,05,06,07,08,09,10,11,12,1.0,1.0,1.0*30
$GPRMC,205422.470,A,4836.605,N,00226.473,E,114.4,348.5,021220,000.0,W*7F
$GPGGA,205423.470,4836.637,N,00226.467,E,1,12,1.0,0.0,M,0.0,M,,*67
$GPGSA,A,3,01,02,03,04,05,06,07,08,09,10,11,12,1.0,1.0,1.0*30
$GPRMC,205423.470,A,4836.637,N,00226.467,E,105.9,276.7,021220,000.0,W*79
$GPGGA,205424.470,4836.642,N,00226.423,E,1,12,1.0,0.0,M,0.0,M,,*62
$GPGSA,A,3,01,02,03,04,05,06,07,08,09,10,11,12,1.0,1.0,1.0*30
$GPRMC,205424.470,A,4836.642,N,00226.423,E,105.9,276.7,021220,000.0,W*7C
