$GPGGA,071324.062,4850.1849,N,00218.3060,E,1,04,2.0,128.4,M,,,,0000*02
$GPGGA,071325.061,4850.1849,N,00218.3061,E,1,04,2.0,128.6,M,,,,0000*03
$GPGGA,071326.000,4850.1848,N,00218.3061,E,1,04,2.0,128.7,M,,,,0000*07
$GPGGA,071327.000,4850.1848,N,00218.3062,E,1,04,2.0,128.7,M,,,,0000*05
$GPGGA,071328.000,4850.1848,N,00218.3062,E,1,04,2.0,128.7,M,,,,0000*0A
$GPGGA,071329.000,4850.1848,N,00218.3062,E,1,04,2.0,128.7,M,,,,0000*0B
$GPGGA,071330.000,4850.1848,N,00218.3062,E,1,04,2.0,128.7,M,,,,0000*03
$GPGGA,071331.000,4850.1848,N,00218.3062,E,1,04,2.0,128.7,M,,,,0000*02
$GPGGA,071332.000,4850.1848,N,00218.3062,E,1,04,2.0,128.7,M,,,,0000*01
$GPGGA,071333.000,4850.1848,N,00218.3062,E,1,04,2.0,128.7,M,,,,0000*00
$GPGGA,071334.000,4850.1848,N,00218.3062,E,1,04,2.0,128.7,M,,,,0000*07
$GPGGA,071335.000,4850.1848,N,00218.3062,E,1,04,2.0,128.7,M,,,,0000*06
$GPGGA,071336.000,4850.1848,N,00218.3062,E,1,04,2.0,128.7,M,,,,0000*05
$GPGGA,071337.000,4850.1848,N,00218.3062,E,1,04,2.0,128.7,M,,,,0000*04
$GPGGA,071338.000,4850.1848,N,00218.3062,E,1,04,2.0,128.7,M,,,,0000*0B
$GPGGA,071339.000,4850.1848,N,00218.3062,E,1,04,2.0,128.7,M,,,,0000*0A
$GPGGA,071340.000,4850.1848,N,00218.3062,E,1,04,2.0,128.7,M,,,,0000*04
$GPGGA,071341.000,4850.1848,N,00218.3062,E,1,04,2.0,128.7,M,,,,0000*05
$GPGGA,071342.000,4850.1848,N,00218.3062,E,1,04,2.0,128.7,M,,,,0000*06
$GPGGA,071343.000,4850.1848,N,00218.3062,E,1,04,2.0,128.7,M,,,,0000*07
$GPGGA,071344.000,4850.1848,N,00218.3062,E,1,04,2.0,128.7,M,,,,0000*00
$GPGGA,071345.000,4850.1848,N,00218.3062,E,1,04,2.0,128.7,M,,,,0000*01
$GPGGA,071346.000,4850.1848,N,00218.3062,E,1,04,2.0,128.7,M,,,,0000*02
$GPGGA,071347.000,4850.1848,N,00218.3062,E,1,04,2.0,128.7,M,,,,0000*03
$GPGGA,071348.000,4850.1848,N,00218.3062,E,1,04,2.0,128.7,M,,,,0000*0C
$GPGGA,071349.000,4850.1848,N,00218.3062,E,1,04,2.0,128.7,M,,,,0000*0D
$GPGGA,071350.000,4850.1848,N,00218.3062,E,1,04,2.0,128.7,M,,,,0000*05
$GPGGA,071351.000,4850.1848,N,00218.3062,E,1,04,2.0,128.7,M,,,,0000*04
$GPGGA,071352.000,4850.1848,N,00218.3062,E,1,04,2.0,128.7,M,,,,0000*07
$GPGGA,071353.000,4850.1848,N,00218.3062,E,1,04,2.0,128.7,M,,,,0000*06
$GPGGA,071354.000,4850.1848,N,00218.3062,E,1,04,2.0,128.7,M,,,,0000*01
$GPGGA,071355.000,4850.1848,N,00218.3062,E,1,04,2.0,128.7,M,,,,0000*00
$GPGGA,071356.000,4850.1848,N,00218.3062,E,1,04,2.0,128.7,M,,,,0000*03
$GPGGA,071357.000,4850.1848,N,00218.3062,E,1,04,2.0,128.7,M,,,,0000*02
$GPGGA,071358.000,4850.1848,N,00218.3062,E,1,04,2.0,128.7,M,,,,0000*0D
$GPGGA,071359.000,4850.1848,N,00218.3062,E,1,05,1.9,128.7,M,,,,0000*07
$GPGGA,071400.000,4850.1849,N,00218.3057,E,1,05,1.9,125.9,M,,,,0000*08
$GPGGA,071401.000,4850.1855,N,00218.3041,E,1,05,1.9,124.2,M,,,,0000*09
$GPGGA,071402.000,4850.1860,N,00218.3014,E,1,05,1.9,122.9,M,,,,0000*01
$GPGGA,071403.000,4850.1867,N,00218.2982,E,1,05,1.9,121.6,M,,,,0000*0C
$GPGGA,071404.000,4850.1876,N,00218.2948,E,1,05,1.9,119.7,M,,,,0000*07
$GPGGA,071405.001,4850.1892,N,00218.2918,E,1,05,1.9,117.6,M,,,,0000*07
$GPGGA,071406.000,4850.1908,N,00218.2883,E,1,05,1.9,116.0,M,,,,0000*03
$GPGGA,071407.000,4850.1914,N,00218.2834,E,1,05,1.9,114.8,M,,,,0000*09
$GPGGA,071408.000,4850.1922,N,00218.2774,E,1,05,1.9,113.1,M,,,,0000*06
$GPGGA,071409.000,4850.1940,N,00218.2726,E,1,05,1.9,112.1,M,,,,0000*05
$GPGGA,071410.000,4850.1961,N,00218.2677,E,1,05,1.9,111.8,M,,,,0000*01
$GPGGA,071411.000,4850.1982,N,00218.2624,E,1,05,1.9,111.3,M,,,,0000*00
$GPGGA,071412.000,4850.1994,N,00218.2554,E,1,05,1.9,111.7,M,,,,0000*04
$GPGGA,071413.000,4850.2011,N,00218.2502,E,1,05,1.9,112.4,M,,,,0000*01
$GPGGA,071414.000,4850.2018,N,00218.2442,E,1,05,1.9,112.1,M,,,,0000*0F
$GPGGA,071415.000,4850.2032,N,00218.2375,E,1,05,1.9,110.1,M,,,,0000*07
$GPGGA,071416.001,4850.2048,N,00218.2302,E,1,05,1.9,108.6,M,,,,0000*06
$GPGGA,071417.001,4850.2067,N,00218.2236,E,1,05,1.9,106.2,M,,,,0000*06
$GPGGA,071418.000,4850.2082,N,00218.2155,E,1,05,1.9,106.3,M,,,,0000*04
$GPGGA,071419.000,4850.2076,N,00218.2050,E,1,05,1.9,106.8,M,,,,0000*01
$GPGGA,071420.000,4850.2076,N,00218.1954,E,1,05,1.9,107.6,M,,,,0000*0A
$GPGGA,071421.000,4850.2082,N,00218.1869,E,1,05,1.9,107.4,M,,,,0000*0D
$GPGGA,071422.000,4850.2099,N,00218.1808,E,1,05,1.9,104.9,M,,,,0000*0D
$GPGGA,071423.001,4850.2104,N,00218.1728,E,1,03,50.0,103.7,M,,,,0000*37
$GPGGA,071424.000,4850.2110,N,00218.1651,E,1,03,50.0,102.2,M,,,,0000*3F
$GPGGA,071425.000,4850.2111,N,00218.1572,E,1,04,5.3,101.2,M,,,,0000*0A
$GPGGA,071426.000,4850.2105,N,00218.1482,E,1,04,5.3,101.7,M,,,,0000*07
$GPGGA,071427.000,4850.2132,N,00218.1412,E,1,05,1.9,101.9,M,,,,0000*0A
$GPGGA,071428.000,4850.2160,N,00218.1352,E,1,05,1.9,101.2,M,,,,0000*0A
$GPGGA,071429.000,4850.2190,N,00218.1300,E,1,05,1.9,100.8,M,,,,0000*08
$GPGGA,071430.000,4850.2205,N,00218.1246,E,1,04,5.3,100.4,M,,,,0000*0F
$GPGGA,071431.000,4850.2219,N,00218.1198,E,1,04,5.3,99.9,M,,,,0000*3F
$GPGGA,071432.000,4850.2240,N,00218.1169,E,1,04,5.3,98.8,M,,,,0000*3E
$GPGGA,071433.000,4850.2253,N,00218.1143,E,1,04,5.3,99.0,M,,,,0000*3C
$GPGGA,071434.000,4850.2285,N,00218.1145,E,1,05,1.9,101.0,M,,,,0000*09
$GPGGA,071435.000,4850.2312,N,00218.1144,E,1,05,1.9,103.0,M,,,,0000*04
$GPGGA,071436.000,4850.2325,N,00218.1146,E,1,05,1.9,104.3,M,,,,0000*05
$GPGGA,071437.000,4850.2322,N,00218.1135,E,1,05,1.9,106.7,M,,,,0000*01
$GPGGA,071438.000,4850.2322,N,00218.1135,E,1,05,1.9,106.7,M,,,,0000*0E
$GPGGA,071439.000,4850.2322,N,00218.1135,E,1,05,1.9,106.7,M,,,,0000*0F
$GPGGA,071440.000,4850.2322,N,00218.1135,E,1,05,1.9,106.7,M,,,,0000*01
$GPGGA,071441.000,4850.2322,N,00218.1135,E,1,05,1.9,106.7,M,,,,0000*00
$GPGGA,071442.000,4850.2322,N,00218.1135,E,1,05,1.9,106.7,M,,,,0000*03
$GPGGA,071443.000,4850.2322,N,00218.1135,E,1,05,1.9,106.7,M,,,,0000*02
$GPGGA,071444.000,4850.2322,N,00218.1135,E,1,05,1.9,106.7,M,,,,0000*05
$GPGGA,071445.000,4850.2322,N,00218.1135,E,1,05,1.9,106.7,M,,,,0000*04
$GPGGA,071446.000,4850.2322,N,00218.1135,E,1,05,1.9,106.7,M,,,,0000*07
$GPGGA,071447.000,4850.2322,N,00218.1135,E,1,05,1.9,106.7,M,,,,0000*06
$GPGGA,071448.000,4850.2359,N,00218.1122,E,1,05,1.9,115.1,M,,,,0000*07
$GPGGA,071449.000,4850.2360,N,00218.1104,E,1,05,1.9,114.6,M,,,,0000*0E
$GPGGA,071450.001,4850.2359,N,00218.1071,E,1,05,1.9,114.0,M,,,,0000*08
$GPGGA,071451.000,4850.2357,N,00218.1025,E,1,05,1.9,113.2,M,,,,0000*02
$GPGGA,071452.000,4850.2349,N,00218.0967,E,1,05,1.9,112.4,M,,,,0000*07
$GPGGA,071453.000,4850.2343,N,00218.0903,E,1,05,1.9,111.2,M,,,,0000*0B
$GPGGA,071454.000,4850.2342,N,00218.0840,E,1,05,1.9,110.4,M,,,,0000*0C
$GPGGA,071455.000,4850.2345,N,00218.0780,E,1,05,1.9,109.7,M,,,,0000*02
$GPGGA,071456.000,4850.2363,N,00218.0735,E,1,05,1.9,109.1,M,,,,0000*0D
$GPGGA,071457.000,4850.2394,N,00218.0708,E,1,05,1.9,107.6,M,,,,0000*03
$GPGGA,071458.000,4850.2425,N,00218.0687,E,1,05,1.9,106.4,M,,,,0000*04
$GPGGA,071459.000,4850.2443,N,00218.0666,E,1,05,1.9,105.8,M,,,,0000*05
$GPGGA,071500.000,4850.2454,N,00218.0640,E,1,05,1.9,104.7,M,,,,0000*04
$GPGGA,071501.000,4850.2457,N,00218.0606,E,1,05,1.9,104.3,M,,,,0000*00
$GPGGA,071502.000,4850.2456,N,00218.0565,E,1,05,1.9,104.3,M,,,,0000*04
$GPGGA,071503.000,4850.2434,N,00218.0512,E,1,05,1.9,105.1,M,,,,0000*02
$GPGGA,071504.001,4850.2418,N,00218.0471,E,1,05,1.9,104.7,M,,,,0000*09
$GPGGA,071505.000,4850.2398,N,00218.0428,E,1,05,1.9,104.8,M,,,,0000*05
$GPGGA,071506.000,4850.2385,N,00218.0378,E,1,05,1.9,104.3,M,,,,0000*03
$GPGGA,071507.000,4850.2377,N,00218.0327,E,1,05,1.9,103.4,M,,,,0000*05
$GPGGA,071508.000,4850.2363,N,00218.0273,E,1,05,1.9,103.1,M,,,,0000*0A
$GPGGA,071509.000,4850.2350,N,00218.0218,E,1,05,1.9,103.2,M,,,,0000*05
$GPGGA,071510.000,4850.2341,N,00218.0171,E,1,05,1.9,102.6,M,,,,0000*04
$GPGGA,071511.000,4850.2329,N,00218.0129,E,1,05,1.9,101.8,M,,,,0000*0B
$GPGGA,071512.000,4850.2320,N,00218.0104,E,1,05,1.9,101.1,M,,,,0000*07
$GPGGA,071513.000,4850.2303,N,00218.0079,E,1,05,1.9,101.9,M,,,,0000*04
$GPGGA,071514.000,4850.2274,N,00218.0046,E,1,05,1.9,102.4,M,,,,0000*00
$GPGGA,071515.000,4850.2244,N,00218.0007,E,1,05,1.9,102.9,M,,,,0000*0A
$GPGGA,071516.000,4850.2219,N,00217.9964,E,1,05,1.9,103.5,M,,,,0000*06
$GPGGA,071517.000,4850.2194,N,00217.9920,E,1,05,1.9,104.8,M,,,,0000*0B
$GPGGA,071518.000,4850.2165,N,00217.9865,E,1,05,1.9,105.4,M,,,,0000*07
$GPGGA,071519.000,4850.2133,N,00217.9817,E,1,05,1.9,106.2,M,,,,0000*05
$GPGGA,071520.000,4850.2105,N,00217.9773,E,1,05,1.9,106.5,M,,,,0000*00
$GPGGA,071521.000,4850.2079,N,00217.9741,E,1,05,1.9,106.7,M,,,,0000*08
$GPGGA,071522.000,4850.2051,N,00217.9712,E,1,05,1.9,107.5,M,,,,0000*04
$GPGGA,071523.000,4850.2013,N,00217.9670,E,1,05,1.9,108.2,M,,,,0000*0E
$GPGGA,071524.000,4850.1984,N,00217.9633,E,1,05,1.9,109.1,M,,,,0000*08
$GPGGA,071525.000,4850.1952,N,00217.9582,E,1,05,1.9,109.1,M,,,,0000*0B
$GPGGA,071526.000,4850.1918,N,00217.9527,E,1,05,1.9,108.1,M,,,,0000*08
$GPGGA,071527.000,4850.1892,N,00217.9489,E,1,05,1.9,108.0,M,,,,0000*0E
$GPGGA,071528.000,4850.1887,N,00217.9482,E,1,05,1.9,106.6,M,,,,0000*06
$GPGGA,071529.000,4850.1889,N,00217.9480,E,1,05,1.9,105.5,M,,,,0000*0B
$GPGGA,071530.000,4850.1898,N,00217.9483,E,1,05,1.9,104.4,M,,,,0000*00
$GPGGA,071531.000,4850.1905,N,00217.9485,E,1,05,1.9,102.8,M,,,,0000*08
$GPGGA,071532.000,4850.1910,N,00217.9474,E,1,05,1.9,101.8,M,,,,0000*02
$GPGGA,071533.000,4850.1912,N,00217.9449,E,1,05,1.9,100.4,M,,,,0000*02
$GPGGA,071534.000,4850.1915,N,00217.9413,E,1,05,1.9,98.8,M,,,,0000*31
$GPGGA,071535.000,4850.1922,N,00217.9370,E,1,05,1.9,97.0,M,,,,0000*31
$GPGGA,071536.000,4850.1930,N,00217.9309,E,1,05,1.9,95.8,M,,,,0000*35
$GPGGA,071537.000,4850.1938,N,00217.9240,E,1,05,1.9,93.5,M,,,,0000*3B
$GPGGA,071538.000,4850.1950,N,00217.9174,E,1,05,1.9,92.2,M,,,,0000*38
$GPGGA,071539.000,4850.1968,N,00217.9113,E,1,05,1.9,91.1,M,,,,0000*33
$GPGGA,071540.000,4850.1989,N,00217.9050,E,1,05,1.9,90.7,M,,,,0000*33
$GPGGA,071541.000,4850.2021,N,00217.8987,E,1,05,1.9,90.9,M,,,,0000*36
$GPGGA,071542.000,4850.2046,N,00217.8930,E,1,05,1.9,90.9,M,,,,0000*38
$GPGGA,071543.000,4850.2081,N,00217.8904,E,1,05,1.9,89.7,M,,,,0000*33
$GPGGA,071544.000,4850.2108,N,00217.8879,E,1,05,1.9,88.4,M,,,,0000*3D
$GPGGA,071545.000,4850.2145,N,00217.8869,E,1,05,1.9,86.2,M,,,,0000*3C
$GPGGA,071546.000,4850.2153,N,00217.8839,E,1,05,1.9,85.9,M,,,,0000*35
$GPGGA,071547.000,4850.2116,N,00217.8785,E,1,05,1.9,86.2,M,,,,0000*35
$GPGGA,071548.000,4850.2074,N,00217.8743,E,1,05,1.9,87.4,M,,,,0000*32
$GPGGA,071549.000,4850.2008,N,00217.8677,E,1,05,1.9,87.8,M,,,,0000*32
$GPGGA,071550.000,4850.1956,N,00217.8622,E,1,05,1.9,88.7,M,,,,0000*3B
$GPGGA,071551.000,4850.1901,N,00217.8564,E,1,05,1.9,89.9,M,,,,0000*36
$GPGGA,071552.000,4850.1835,N,00217.8496,E,1,05,1.9,92.0,M,,,,0000*3C
$GPGGA,071553.000,4850.1795,N,00217.8442,E,1,05,1.9,91.8,M,,,,0000*3A
$GPGGA,071554.000,4850.1747,N,00217.8387,E,1,04,2.2,91.7,M,,,,0000*3A
$GPGGA,071555.000,4850.1691,N,00217.8333,E,1,05,1.9,92.3,M,,,,0000*30
$GPGGA,071556.000,4850.1630,N,00217.8273,E,1,05,1.9,93.0,M,,,,0000*3F
$GPGGA,071557.000,4850.1568,N,00217.8218,E,1,05,1.9,93.3,M,,,,0000*3E
$GPGGA,071558.000,4850.1518,N,00217.8160,E,1,04,5.7,93.8,M,,,,0000*3A
$GPGGA,071559.000,4850.1475,N,00217.8107,E,1,05,1.9,94.3,M,,,,0000*37
$GPGGA,071600.000,4850.1459,N,00217.8066,E,1,04,3.0,95.3,M,,,,0000*3B
$GPGGA,071601.000,4850.1458,N,00217.8019,E,1,04,3.0,96.2,M,,,,0000*31
$GPGGA,071602.001,4850.1435,N,00217.7985,E,1,04,5.7,97.3,M,,,,0000*3A
$GPGGA,071603.000,4850.1393,N,00217.7955,E,1,04,5.7,97.9,M,,,,0000*36
$GPGGA,071604.000,4850.1310,N,00217.7899,E,1,05,1.9,98.0,M,,,,0000*36
$GPGGA,071605.000,4850.1206,N,00217.7825,E,1,05,1.9,101.4,M,,,,0000*03
$GPGGA,071606.000,4850.1132,N,00217.7753,E,1,05,1.9,102.6,M,,,,0000*0B
$GPGGA,071607.000,4850.1070,N,00217.7695,E,1,05,1.9,105.4,M,,,,0000*03
$GPGGA,071608.000,4850.1003,N,00217.7646,E,1,05,1.9,107.7,M,,,,0000*07
$GPGGA,071609.000,4850.0950,N,00217.7609,E,1,05,1.9,110.2,M,,,,0000*00
$GPGGA,071610.000,4850.0906,N,00217.7571,E,1,05,1.9,112.0,M,,,,0000*07
$GPGGA,071611.000,4850.0865,N,00217.7530,E,1,05,1.9,113.4,M,,,,0000*02
$GPGGA,071612.000,4850.0827,N,00217.7483,E,1,05,1.9,115.5,M,,,,0000*09
$GPGGA,071613.000,4850.0801,N,00217.7449,E,1,05,1.9,116.2,M,,,,0000*0E
$GPGGA,071614.000,4850.0791,N,00217.7435,E,1,05,1.9,117.4,M,,,,0000*03
$GPGGA,071615.000,4850.0758,N,00217.7402,E,1,05,1.9,119.8,M,,,,0000*01
$GPGGA,071616.000,4850.0737,N,00217.7384,E,1,05,1.9,122.7,M,,,,0000*05
$GPGGA,071617.000,4850.0733,N,00217.7378,E,1,05,1.9,124.5,M,,,,0000*07
$GPGGA,071618.000,4850.0738,N,00217.7373,E,1,05,1.9,125.5,M,,,,0000*09
$GPGGA,071619.000,4850.0715,N,00217.7348,E,1,05,1.9,126.1,M,,,,0000*08
$GPGGA,071620.001,4850.0698,N,00217.7338,E,1,05,1.9,124.4,M,,,,0000*07
$GPGGA,071621.000,4850.0686,N,00217.7333,E,1,05,1.9,122.4,M,,,,0000*05
$GPGGA,071622.000,4850.0665,N,00217.7322,E,1,05,1.9,122.6,M,,,,0000*09
$GPGGA,071623.000,4850.0628,N,00217.7291,E,1,05,1.9,124.3,M,,,,0000*0B
$GPGGA,071624.000,4850.0590,N,00217.7266,E,1,05,1.9,125.9,M,,,,0000*0F
$GPGGA,071625.000,4850.0556,N,00217.7234,E,1,05,1.9,125.9,M,,,,0000*03
$GPGGA,071626.000,4850.0506,N,00217.7195,E,1,05,1.9,126.5,M,,,,0000*02
$GPGGA,071627.000,4850.0462,N,00217.7170,E,1,05,1.9,127.5,M,,,,0000*0A
$GPGGA,071628.000,4850.0412,N,00217.7136,E,1,05,1.9,129.0,M,,,,0000*0B
$GPGGA,071629.000,4850.0370,N,00217.7109,E,1,05,1.9,130.2,M,,,,0000*0F
$GPGGA,071630.000,4850.0336,N,00217.7083,E,1,05,1.9,129.6,M,,,,0000*0A
$GPGGA,071631.001,4850.0303,N,00217.7058,E,1,05,1.9,129.5,M,,,,0000*09
$GPGGA,071632.000,4850.0251,N,00217.7019,E,1,05,1.9,130.4,M,,,,0000*01
$GPGGA,071633.000,4850.0198,N,00217.6976,E,1,05,1.9,130.4,M,,,,0000*07
$GPGGA,071634.000,4850.0143,N,00217.6936,E,1,05,1.9,131.2,M,,,,0000*05
$GPGGA,071635.000,4850.0086,N,00217.6898,E,1,05,1.9,133.2,M,,,,0000*0B
$GPGGA,071636.000,4850.0032,N,00217.6858,E,1,05,1.9,135.0,M,,,,0000*0F
$GPGGA,071637.000,4849.9983,N,00217.6822,E,1,05,1.9,137.1,M,,,,0000*02
$GPGGA,071638.000,4849.9944,N,00217.6787,E,1,05,1.9,137.3,M,,,,0000*04
$GPGGA,071639.000,4849.9915,N,00217.6742,E,1,05,1.9,136.5,M,,,,0000*0F
$GPGGA,071640.000,4849.9897,N,00217.6697,E,1,05,1.9,138.0,M,,,,0000*08
$GPGGA,071641.000,4849.9872,N,00217.6639,E,1,05,1.9,140.2,M,,,,0000*0B
$GPGGA,071642.000,4849.9810,N,00217.6549,E,1,04,2.2,142.9,M,,,,0000*08
$GPGGA,071643.000,4849.9775,N,00217.6493,E,1,04,2.2,143.2,M,,,,0000*09
$GPGGA,071644.000,4849.9756,N,00217.6439,E,1,05,1.9,143.2,M,,,,0000*06
$GPGGA,071645.000,4849.9748,N,00217.6382,E,1,05,1.9,144.0,M,,,,0000*0A
$GPGGA,071646.000,4849.9760,N,00217.6313,E,1,05,1.9,142.8,M,,,,0000*05
$GPGGA,071647.000,4849.9777,N,00217.6276,E,1,05,1.9,145.8,M,,,,0000*07
$GPGGA,071648.001,4849.9783,N,00217.6255,E,1,05,1.9,146.9,M,,,,0000*01
$GPGGA,071649.000,4849.9723,N,00217.6229,E,1,05,1.9,147.1,M,,,,0000*09
$GPGGA,071650.000,4849.9623,N,00217.6182,E,1,05,1.9,145.1,M,,,,0000*00
$GPGGA,071651.001,4849.9579,N,00217.6161,E,1,05,1.9,143.1,M,,,,0000*07
$GPGGA,071652.000,4849.9524,N,00217.6107,E,1,04,3.0,142.7,M,,,,0000*00
$GPGGA,071653.000,4849.9326,N,00217.5959,E,1,04,3.0,145.8,M,,,,0000*0D
$GPGGA,071654.000,4849.9253,N,00217.5901,E,1,05,1.9,145.3,M,,,,0000*05
$GPGGA,071655.000,4849.9141,N,00217.5821,E,1,05,1.9,143.9,M,,,,0000*0B
$GPGGA,071656.000,4849.9055,N,00217.5758,E,1,05,1.9,142.5,M,,,,0000*00
$GPGGA,071657.000,4849.8970,N,00217.5700,E,1,05,1.9,142.8,M,,,,0000*0E
$GPGGA,071658.000,4849.8885,N,00217.5638,E,1,05,1.9,143.4,M,,,,0000*0D
$GPGGA,071659.000,4849.8800,N,00217.5575,E,1,05,1.9,145.5,M,,,,0000*0C
$GPGGA,071700.000,4849.8730,N,00217.5526,E,1,05,1.9,146.2,M,,,,0000*0F
$GPGGA,071701.000,4849.8672,N,00217.5486,E,1,05,1.9,145.8,M,,,,0000*0B
$GPGGA,071702.000,4849.8611,N,00217.5433,E,1,05,1.9,146.6,M,,,,0000*0E
$GPGGA,071703.000,4849.8562,N,00217.5377,E,1,05,1.9,145.8,M,,,,0000*02
$GPGGA,071704.000,4849.8514,N,00217.5326,E,1,05,1.9,146.1,M,,,,0000*0A
$GPGGA,071705.000,4849.8472,N,00217.5274,E,1,05,1.9,146.0,M,,,,0000*0D
$GPGGA,071706.000,4849.8475,N,00217.5260,E,1,05,1.9,146.0,M,,,,0000*0C
$GPGGA,071707.000,4849.8477,N,00217.5250,E,1,05,1.9,146.7,M,,,,0000*0B
$GPGGA,071708.000,4849.8482,N,00217.5253,E,1,05,1.9,147.1,M,,,,0000*0A
$GPGGA,071709.000,4849.8487,N,00217.5258,E,1,05,1.9,146.9,M,,,,0000*0C
$GPGGA,071710.000,4849.8499,N,00217.5272,E,1,05,1.9,145.1,M,,,,0000*08
$GPGGA,071711.000,4849.8509,N,00217.5285,E,1,05,1.9,143.4,M,,,,0000*0A
$GPGGA,071712.000,4849.8509,N,00217.5285,E,1,05,1.9,143.4,M,,,,0000*09
$GPGGA,071713.000,4849.8509,N,00217.5285,E,1,05,1.9,143.4,M,,,,0000*08
$GPGGA,071714.000,4849.8509,N,00217.5285,E,1,05,1.9,143.4,M,,,,0000*0F
$GPGGA,071715.000,4849.8509,N,00217.5285,E,1,05,1.9,143.4,M,,,,0000*0E
$GPGGA,071716.000,4849.8509,N,00217.5285,E,1,05,1.9,143.4,M,,,,0000*0D
$GPGGA,071717.000,4849.8509,N,00217.5285,E,1,05,1.9,143.4,M,,,,0000*0C
$GPGGA,071718.000,4849.8509,N,00217.5285,E,1,05,1.9,143.4,M,,,,0000*03
$GPGGA,071719.000,4849.8509,N,00217.5285,E,1,05,1.9,143.4,M,,,,0000*02
$GPGGA,071720.000,4849.8509,N,00217.5285,E,1,04,3.0,143.4,M,,,,0000*02
$GPGGA,071721.000,4849.8509,N,00217.5285,E,1,04,3.0,143.4,M,,,,0000*03
$GPGGA,071722.000,4849.8509,N,00217.5285,E,1,04,3.0,143.4,M,,,,0000*00
$GPGGA,071723.000,4849.8509,N,00217.5285,E,1,04,3.0,143.4,M,,,,0000*01
$GPGGA,071724.000,4849.8509,N,00217.5285,E,1,04,3.0,143.4,M,,,,0000*06
$GPGGA,071725.000,4849.8509,N,00217.5285,E,1,04,3.0,143.4,M,,,,0000*07
$GPGGA,071726.000,4849.8509,N,00217.5285,E,1,04,3.0,143.4,M,,,,0000*04
$GPGGA,071727.000,4849.8509,N,00217.5285,E,1,05,1.9,143.4,M,,,,0000*0F
$GPGGA,071728.000,4849.8509,N,00217.5285,E,1,05,1.9,143.4,M,,,,0000*00
$GPGGA,071729.000,4849.8509,N,00217.5285,E,1,05,1.9,143.4,M,,,,0000*01
$GPGGA,071730.000,4849.8509,N,00217.5285,E,1,05,1.9,143.4,M,,,,0000*09
$GPGGA,071731.000,4849.8509,N,00217.5285,E,1,05,1.9,143.4,M,,,,0000*08
$GPGGA,071732.000,4849.8509,N,00217.5285,E,1,05,1.9,143.4,M,,,,0000*0B
$GPGGA,071733.000,4849.8509,N,00217.5285,E,1,05,1.9,143.4,M,,,,0000*0A
$GPGGA,071734.000,4849.8509,N,00217.5285,E,1,05,1.9,143.4,M,,,,0000*0D
$GPGGA,071735.000,4849.8509,N,00217.5285,E,1,06,1.7,143.4,M,,,,0000*01
$GPGGA,071736.000,4849.8509,N,00217.5285,E,1,06,1.7,143.4,M,,,,0000*02
$GPGGA,071737.000,4849.8509,N,00217.5285,E,1,06,1.7,143.4,M,,,,0000*03
$GPGGA,071738.000,4849.8509,N,00217.5285,E,1,06,1.7,143.4,M,,,,0000*0C
$GPGGA,071739.000,4849.8509,N,00217.5285,E,1,06,1.7,143.4,M,,,,0000*0D
$GPGGA,071740.000,4849.8509,N,00217.5285,E,1,06,1.7,143.4,M,,,,0000*03
$GPGGA,071741.000,4849.8509,N,00217.5285,E,1,06,1.7,143.4,M,,,,0000*02
$GPGGA,071742.000,4849.8509,N,00217.5285,E,1,06,1.7,143.4,M,,,,0000*01
$GPGGA,071743.000,4849.8509,N,00217.5285,E,1,06,1.7,143.4,M,,,,0000*00
$GPGGA,071744.000,4849.8509,N,00217.5285,E,1,06,1.7,143.4,M,,,,0000*07
$GPGGA,071745.000,4849.8509,N,00217.5285,E,1,06,1.7,143.4,M,,,,0000*06
$GPGGA,071746.000,4849.8509,N,00217.5285,E,1,06,1.7,143.4,M,,,,0000*05
$GPGGA,071747.000,4849.8509,N,00217.5285,E,1,06,1.7,143.4,M,,,,0000*04
$GPGGA,071748.000,4849.8509,N,00217.5285,E,1,06,1.7,143.4,M,,,,0000*0B
$GPGGA,071749.000,4849.8509,N,00217.5285,E,1,06,1.7,143.4,M,,,,0000*0A
$GPGGA,071750.000,4849.8509,N,00217.5285,E,1,06,1.7,143.4,M,,,,0000*02
$GPGGA,071751.000,4849.8509,N,00217.5285,E,1,06,1.7,143.4,M,,,,0000*03
$GPGGA,071752.000,4849.8509,N,00217.5285,E,1,06,1.7,143.4,M,,,,0000*00
$GPGGA,071753.000,4849.8509,N,00217.5285,E,1,06,1.7,143.4,M,,,,0000*01
$GPGGA,071754.000,4849.8509,N,00217.5285,E,1,06,1.7,143.4,M,,,,0000*06
$GPGGA,071755.000,4849.8509,N,00217.5285,E,1,06,1.7,143.4,M,,,,0000*07
$GPGGA,071756.000,4849.8509,N,00217.5285,E,1,06,1.7,143.4,M,,,,0000*04
$GPGGA,071757.000,4849.8509,N,00217.5285,E,1,06,1.7,143.4,M,,,,0000*05
$GPGGA,071758.000,4849.8509,N,00217.5285,E,1,06,1.7,143.4,M,,,,0000*0A
$GPGGA,071759.000,4849.8509,N,00217.5285,E,1,06,1.7,143.4,M,,,,0000*0B
$GPGGA,071800.000,4849.8509,N,00217.5285,E,1,06,1.7,143.4,M,,,,0000*08
$GPGGA,071801.000,4849.8509,N,00217.5285,E,1,06,1.7,143.4,M,,,,0000*09
$GPGGA,071802.000,4849.8551,N,00217.5345,E,1,06,1.7,133.4,M,,,,0000*0D
$GPGGA,071803.000,4849.8542,N,00217.5337,E,1,06,1.7,132.7,M,,,,0000*09
$GPGGA,071804.000,4849.8529,N,00217.5325,E,1,06,1.7,131.7,M,,,,0000*03
$GPGGA,071805.000,4849.8510,N,00217.5309,E,1,06,1.7,130.9,M,,,,0000*09
$GPGGA,071806.000,4849.8489,N,00217.5295,E,1,06,1.7,129.4,M,,,,0000*0A
$GPGGA,071807.000,4849.8464,N,00217.5282,E,1,06,1.7,127.9,M,,,,0000*0D
$GPGGA,071808.000,4849.8438,N,00217.5271,E,1,06,1.7,126.6,M,,,,0000*09
$GPGGA,071809.000,4849.8412,N,00217.5262,E,1,06,1.7,124.9,M,,,,0000*0F
$GPGGA,071810.000,4849.8387,N,00217.5257,E,1,06,1.7,123.9,M,,,,0000*0D
$GPGGA,071811.000,4849.8368,N,00217.5258,E,1,06,1.7,123.0,M,,,,0000*0B
$GPGGA,071812.000,4849.8357,N,00217.5261,E,1,06,1.7,121.6,M,,,,0000*0A
$GPGGA,071813.000,4849.8355,N,00217.5265,E,1,06,1.7,120.3,M,,,,0000*09
$GPGGA,071814.000,4849.8357,N,00217.5269,E,1,06,1.7,119.1,M,,,,0000*08
$GPGGA,071815.000,4849.8360,N,00217.5273,E,1,06,1.7,118.0,M,,,,0000*06
$GPGGA,071816.000,4849.8360,N,00217.5273,E,1,06,1.7,118.0,M,,,,0000*05
$GPGGA,071817.000,4849.8360,N,00217.5273,E,1,06,1.7,118.0,M,,,,0000*04
$GPGGA,071818.001,4849.8360,N,00217.5273,E,1,06,1.7,118.0,M,,,,0000*0A
$GPGGA,071819.000,4849.8360,N,00217.5273,E,1,06,1.7,118.0,M,,,,0000*0A
$GPGGA,071820.000,4849.8360,N,00217.5273,E,1,06,1.7,118.0,M,,,,0000*00
$GPGGA,071821.000,4849.8360,N,00217.5273,E,1,06,1.7,118.0,M,,,,0000*01
$GPGGA,071822.000,4849.8360,N,00217.5273,E,1,06,1.7,118.0,M,,,,0000*02
$GPGGA,071823.000,4849.8360,N,00217.5273,E,1,06,1.7,118.0,M,,,,0000*03
$GPGGA,071824.000,4849.8360,N,00217.5273,E,1,06,1.7,118.0,M,,,,0000*04
$GPGGA,071825.000,4849.8360,N,00217.5273,E,1,06,1.7,118.0,M,,,,0000*05
$GPGGA,071826.000,4849.8373,N,00217.5308,E,1,06,1.7,109.1,M,,,,0000*08
$GPGGA,071827.000,4849.8360,N,00217.5307,E,1,06,1.7,109.4,M,,,,0000*01
$GPGGA,071828.000,4849.8349,N,00217.5307,E,1,06,1.7,109.4,M,,,,0000*05
$GPGGA,071829.000,4849.8345,N,00217.5312,E,1,07,1.3,109.1,M,,,,0000*0C
$GPGGA,071830.000,4849.8343,N,00217.5315,E,1,07,1.3,108.7,M,,,,0000*02
$GPGGA,071831.000,4849.8343,N,00217.5317,E,1,07,1.3,108.4,M,,,,0000*02
$GPGGA,071832.000,4849.8343,N,00217.5317,E,1,07,1.3,108.4,M,,,,0000*01
$GPGGA,071833.000,4849.8343,N,00217.5317,E,1,07,1.3,108.4,M,,,,0000*00
$GPGGA,071834.000,4849.8343,N,00217.5317,E,1,07,1.3,108.4,M,,,,0000*07
$GPGGA,071835.000,4849.8343,N,00217.5317,E,1,08,1.1,108.4,M,,,,0000*0B
$GPGGA,071836.000,4849.8343,N,00217.5317,E,1,08,1.1,108.4,M,,,,0000*08
$GPGGA,071837.000,4849.8343,N,00217.5317,E,1,08,1.1,108.4,M,,,,0000*09
$GPGGA,071838.000,4849.8343,N,00217.5317,E,1,08,1.1,108.4,M,,,,0000*06
$GPGGA,071839.000,4849.8343,N,00217.5317,E,1,08,1.1,108.4,M,,,,0000*07
$GPGGA,071840.000,4849.8343,N,00217.5317,E,1,08,1.1,108.4,M,,,,0000*09
$GPGGA,071841.000,4849.8343,N,00217.5317,E,1,08,1.1,108.4,M,,,,0000*08
$GPGGA,071842.000,4849.8343,N,00217.5317,E,1,08,1.1,108.4,M,,,,0000*0B
$GPGGA,071843.000,4849.8343,N,00217.5317,E,1,08,1.1,108.4,M,,,,0000*0A
$GPGGA,071844.000,4849.8343,N,00217.5317,E,1,08,1.1,108.4,M,,,,0000*0D
$GPGGA,071845.000,4849.8343,N,00217.5317,E,1,08,1.1,108.4,M,,,,0000*0C
$GPGGA,071846.000,4849.8343,N,00217.5317,E,1,08,1.1,108.4,M,,,,0000*0F
$GPGGA,071847.000,4849.8343,N,00217.5317,E,1,08,1.1,108.4,M,,,,0000*0E
$GPGGA,071848.000,4849.8343,N,00217.5317,E,1,08,1.1,108.4,M,,,,0000*01
$GPGGA,071849.000,4849.8343,N,00217.5317,E,1,08,1.1,108.4,M,,,,0000*00
$GPGGA,071850.000,4849.8343,N,00217.5317,E,1,08,1.1,108.4,M,,,,0000*08
$GPGGA,071851.000,4849.8343,N,00217.5317,E,1,08,1.1,108.4,M,,,,0000*09
$GPGGA,071852.000,4849.8343,N,00217.5317,E,1,08,1.1,108.4,M,,,,0000*0A
$GPGGA,071853.000,4849.8343,N,00217.5317,E,1,08,1.1,108.4,M,,,,0000*0B
$GPGGA,071854.000,4849.8343,N,00217.5317,E,1,08,1.1,108.4,M,,,,0000*0C
$GPGGA,071855.000,4849.8343,N,00217.5317,E,1,08,1.1,108.4,M,,,,0000*0D
$GPGGA,071856.000,4849.8343,N,00217.5317,E,1,08,1.1,108.4,M,,,,0000*0E
$GPGGA,071857.000,4849.8343,N,00217.5317,E,1,08,1.1,108.4,M,,,,0000*0F
$GPGGA,071858.000,4849.8343,N,00217.5317,E,1,08,1.1,108.4,M,,,,0000*00
$GPGGA,071859.000,4849.8343,N,00217.5317,E,1,08,1.1,108.4,M,,,,0000*01
$GPGGA,071900.000,4849.8343,N,00217.5317,E,1,08,1.1,108.4,M,,,,0000*0C
$GPGGA,071901.000,4849.8343,N,00217.5317,E,1,08,1.1,108.4,M,,,,0000*0D
$GPGGA,071902.000,4849.8343,N,00217.5317,E,1,08,1.1,108.4,M,,,,0000*0E
$GPGGA,071903.000,4849.8328,N,00217.5355,E,1,08,1.1,101.1,M,,,,0000*08
$GPGGA,071904.000,4849.8304,N,00217.5358,E,1,08,1.1,101.0,M,,,,0000*0D
$GPGGA,071905.000,4849.8269,N,00217.5362,E,1,08,1.1,100.8,M,,,,0000*06
$GPGGA,071906.000,4849.8229,N,00217.5365,E,1,08,1.1,100.7,M,,,,0000*09
$GPGGA,071907.000,4849.8183,N,00217.5369,E,1,08,1.1,100.6,M,,,,0000*06
$GPGGA,071908.000,4849.8129,N,00217.5373,E,1,08,1.1,100.5,M,,,,0000*01
$GPGGA,071909.000,4849.8071,N,00217.5376,E,1,08,1.1,100.5,M,,,,0000*09
$GPGGA,071910.000,4849.8011,N,00217.5379,E,1,08,1.1,100.3,M,,,,0000*0E
$GPGGA,071911.000,4849.7946,N,00217.5384,E,1,08,1.1,100.2,M,,,,0000*08
$GPGGA,071912.000,4849.7877,N,00217.5387,E,1,08,1.1,100.1,M,,,,0000*08
$GPGGA,071913.000,4849.7805,N,00217.5390,E,1,08,1.1,99.9,M,,,,0000*33
$GPGGA,071914.000,4849.7729,N,00217.5392,E,1,08,1.1,100.0,M,,,,0000*0F
$GPGGA,071915.000,4849.7652,N,00217.5393,E,1,08,1.1,99.9,M,,,,0000*3A
$GPGGA,071916.000,4849.7572,N,00217.5393,E,1,08,1.1,99.8,M,,,,0000*39
$GPGGA,071917.000,4849.7492,N,00217.5393,E,1,08,1.1,99.7,M,,,,0000*38
$GPGGA,071918.000,4849.7412,N,00217.5393,E,1,08,1.1,99.4,M,,,,0000*3C
$GPGGA,071919.000,4849.7330,N,00217.5392,E,1,08,1.1,99.3,M,,,,0000*3C
$GPGGA,071920.000,4849.7247,N,00217.5391,E,1,08,1.1,99.1,M,,,,0000*36
$GPGGA,071921.000,4849.7163,N,00217.5390,E,1,08,1.1,98.9,M,,,,0000*3A
$GPGGA,071922.000,4849.7081,N,00217.5387,E,1,08,1.1,98.7,M,,,,0000*3C
$GPGGA,071923.000,4849.6999,N,00217.5385,E,1,08,1.1,98.5,M,,,,0000*3C
$GPGGA,071924.000,4849.6918,N,00217.5382,E,1,08,1.1,98.4,M,,,,0000*34
$GPGGA,071925.000,4849.6839,N,00217.5379,E,1,08,1.1,98.3,M,,,,0000*34
$GPGGA,071926.000,4849.6762,N,00217.5374,E,1,08,1.1,98.1,M,,,,0000*39
$GPGGA,071927.000,4849.6686,N,00217.5365,E,1,08,1.1,98.2,M,,,,0000*30
$GPGGA,071928.000,4849.6613,N,00217.5354,E,1,08,1.1,98.3,M,,,,0000*30
$GPGGA,071929.000,4849.6541,N,00217.5344,E,1,08,1.1,98.4,M,,,,0000*33
$GPGGA,071930.000,4849.6470,N,00217.5341,E,1,08,1.1,98.5,M,,,,0000*3C
$GPGGA,071931.000,4849.6400,N,00217.5347,E,1,08,1.1,98.5,M,,,,0000*3C
$GPGGA,071932.000,4849.6330,N,00217.5359,E,1,08,1.1,98.3,M,,,,0000*32
$GPGGA,071933.000,4849.6259,N,00217.5374,E,1,08,1.1,98.2,M,,,,0000*33
$GPGGA,071934.000,4849.6186,N,00217.5385,E,1,08,1.1,98.1,M,,,,0000*38
$GPGGA,071935.000,4849.6112,N,00217.5395,E,1,08,1.1,98.1,M,,,,0000*35
$GPGGA,071936.000,4849.6036,N,00217.5405,E,1,08,1.1,98.2,M,,,,0000*3C
$GPGGA,071937.000,4849.5957,N,00217.5416,E,1,08,1.1,98.2,M,,,,0000*32
$GPGGA,071938.000,4849.5877,N,00217.5424,E,1,08,1.1,98.3,M,,,,0000*3E
$GPGGA,071939.000,4849.5795,N,00217.5434,E,1,08,1.1,98.7,M,,,,0000*39
$GPGGA,071940.000,4849.5713,N,00217.5442,E,1,08,1.1,99.1,M,,,,0000*3F
$GPGGA,071941.000,4849.5637,N,00217.5457,E,1,06,1.3,99.1,M,,,,0000*31
$GPGGA,071942.000,4849.5562,N,00217.5467,E,1,08,1.1,99.3,M,,,,0000*3C
$GPGGA,071943.000,4849.5492,N,00217.5462,E,1,08,1.1,99.4,M,,,,0000*31
$GPGGA,071944.000,4849.5431,N,00217.5466,E,1,07,1.2,99.2,M,,,,0000*31
$GPGGA,071945.000,4849.5374,N,00217.5467,E,1,08,1.1,100.2,M,,,,0000*0A
$GPGGA,071946.000,4849.5328,N,00217.5466,E,1,08,1.1,100.5,M,,,,0000*06
$GPGGA,071947.000,4849.5284,N,00217.5458,E,1,08,1.1,100.7,M,,,,0000*0F
$GPGGA,071948.000,4849.5242,N,00217.5455,E,1,08,1.1,102.2,M,,,,0000*00
$GPGGA,071949.000,4849.5201,N,00217.5473,E,1,08,1.1,104.5,M,,,,0000*03
$GPGGA,071950.000,4849.5157,N,00217.5499,E,1,08,1.1,104.0,M,,,,0000*0A
$GPGGA,071951.000,4849.5104,N,00217.5527,E,1,07,1.2,104.3,M,,,,0000*06
$GPGGA,071952.000,4849.5043,N,00217.5548,E,1,08,1.1,104.4,M,,,,0000*05
$GPGGA,071953.000,4849.4975,N,00217.5567,E,1,08,1.1,104.6,M,,,,0000*06
$GPGGA,071954.000,4849.4902,N,00217.5588,E,1,08,1.1,105.2,M,,,,0000*05
$GPGGA,071955.000,4849.4827,N,00217.5611,E,1,08,1.1,105.5,M,,,,0000*06
$GPGGA,071956.000,4849.4752,N,00217.5637,E,1,08,1.1,105.9,M,,,,0000*00
$GPGGA,071957.000,4849.4680,N,00217.5665,E,1,08,1.1,106.0,M,,,,0000*02
$GPGGA,071958.001,4849.4613,N,00217.5695,E,1,08,1.1,105.6,M,,,,0000*0C
$GPGGA,071959.000,4849.4548,N,00217.5725,E,1,08,1.1,104.9,M,,,,0000*05
$GPGGA,072000.000,4849.4485,N,00217.5752,E,1,08,1.1,104.7,M,,,,0000*0D
$GPGGA,072001.000,4849.4429,N,00217.5776,E,1,08,1.1,104.2,M,,,,0000*09
$GPGGA,072002.000,4849.4378,N,00217.5793,E,1,07,1.3,103.8,M,,,,0000*02
$GPGGA,072003.000,4849.4330,N,00217.5799,E,1,08,1.1,103.7,M,,,,0000*07
$GPGGA,072004.000,4849.4279,N,00217.5788,E,1,08,1.1,103.5,M,,,,0000*0E
$GPGGA,072005.000,4849.4224,N,00217.5761,E,1,07,1.3,103.5,M,,,,0000*0D
$GPGGA,072006.000,4849.4165,N,00217.5724,E,1,08,1.1,103.4,M,,,,0000*05
$GPGGA,072007.000,4849.4102,N,00217.5684,E,1,08,1.1,103.3,M,,,,0000*09
$GPGGA,072008.000,4849.4035,N,00217.5642,E,1,08,1.1,103.1,M,,,,0000*0B
$GPGGA,072009.000,4849.3967,N,00217.5596,E,1,08,1.1,103.2,M,,,,0000*0A
$GPGGA,072010.000,4849.3897,N,00217.5547,E,1,08,1.1,103.5,M,,,,0000*07
$GPGGA,072011.000,4849.3828,N,00217.5496,E,1,08,1.1,103.2,M,,,,0000*08
$GPGGA,072012.000,4849.3755,N,00217.5446,E,1,08,1.1,103.8,M,,,,0000*09
$GPGGA,072013.000,4849.3682,N,00217.5392,E,1,08,1.1,103.0,M,,,,0000*05
$GPGGA,072014.000,4849.3608,N,00217.5337,E,1,08,1.1,102.5,M,,,,0000*0B
$GPGGA,072015.000,4849.3533,N,00217.5283,E,1,08,1.1,102.0,M,,,,0000*0A
$GPGGA,072016.000,4849.3456,N,00217.5227,E,1,08,1.1,102.2,M,,,,0000*07
$GPGGA,072017.000,4849.3378,N,00217.5171,E,1,08,1.1,102.5,M,,,,0000*0A
$GPGGA,072018.000,4849.3298,N,00217.5116,E,1,08,1.1,102.9,M,,,,0000*07
$GPGGA,072019.000,4849.3219,N,00217.5061,E,1,08,1.1,103.2,M,,,,0000*04
$GPGGA,072020.000,4849.3141,N,00217.5007,E,1,08,1.1,103.5,M,,,,0000*07
$GPGGA,072021.000,4849.3066,N,00217.4953,E,1,08,1.1,103.7,M,,,,0000*09
$GPGGA,072022.000,4849.2994,N,00217.4904,E,1,08,1.1,103.8,M,,,,0000*02
$GPGGA,072023.000,4849.2927,N,00217.4857,E,1,07,1.2,103.8,M,,,,0000*00
$GPGGA,072024.000,4849.2862,N,00217.4813,E,1,08,1.1,103.9,M,,,,0000*0A
$GPGGA,072025.000,4849.2799,N,00217.4775,E,1,08,1.1,103.7,M,,,,0000*01
$GPGGA,072026.001,4849.2735,N,00217.4735,E,1,08,1.1,103.2,M,,,,0000*04
$GPGGA,072027.000,4849.2672,N,00217.4696,E,1,08,1.1,103.0,M,,,,0000*0C
$GPGGA,072028.000,4849.2612,N,00217.4659,E,1,08,1.1,102.8,M,,,,0000*0F
$GPGGA,072029.000,4849.2561,N,00217.4623,E,1,08,1.1,102.3,M,,,,0000*0F
$GPGGA,072030.000,4849.2518,N,00217.4593,E,1,08,1.1,102.0,M,,,,0000*02
$GPGGA,072031.000,4849.2483,N,00217.4567,E,1,08,1.1,101.6,M,,,,0000*0E
$GPGGA,072032.000,4849.2455,N,00217.4546,E,1,08,1.1,101.7,M,,,,0000*04
$GPGGA,072033.000,4849.2434,N,00217.4533,E,1,08,1.1,102.5,M,,,,0000*01
$GPGGA,072034.000,4849.2425,N,00217.4527,E,1,07,1.3,103.0,M,,,,0000*0A
$GPGGA,072035.000,4849.2422,N,00217.4525,E,1,07,1.3,103.1,M,,,,0000*0F
$GPGGA,072036.000,4849.2420,N,00217.4529,E,1,07,1.3,104.2,M,,,,0000*06
$GPGGA,072037.000,4849.2420,N,00217.4529,E,1,08,1.1,104.2,M,,,,0000*0A
$GPGGA,072038.000,4849.2420,N,00217.4529,E,1,08,1.1,104.2,M,,,,0000*05
$GPGGA,072039.000,4849.2420,N,00217.4529,E,1,08,1.1,104.2,M,,,,0000*04
$GPGGA,072040.000,4849.2420,N,00217.4529,E,1,07,1.3,104.2,M,,,,0000*07
$GPGGA,072041.000,4849.2420,N,00217.4529,E,1,06,2.7,104.2,M,,,,0000*00
$GPGGA,072042.000,4849.2420,N,00217.4529,E,1,06,2.7,104.2,M,,,,0000*03
$GPGGA,072043.000,4849.2420,N,00217.4529,E,1,06,2.7,104.2,M,,,,0000*02
$GPGGA,072044.000,4849.2420,N,00217.4529,E,1,06,2.7,104.2,M,,,,0000*05
$GPGGA,072045.000,4849.2420,N,00217.4529,E,1,06,2.7,104.2,M,,,,0000*04
$GPGGA,072046.000,4849.2420,N,00217.4529,E,1,06,2.7,104.2,M,,,,0000*07
$GPGGA,072047.000,4849.2420,N,00217.4529,E,1,07,1.3,104.2,M,,,,0000*00
$GPGGA,072048.000,4849.2406,N,00217.4545,E,1,07,1.3,108.4,M,,,,0000*0B
$GPGGA,072049.000,4849.2397,N,00217.4538,E,1,07,1.3,108.3,M,,,,0000*08
$GPGGA,072050.000,4849.2380,N,00217.4527,E,1,07,1.3,108.3,M,,,,0000*08
$GPGGA,072051.000,4849.2359,N,00217.4512,E,1,07,1.3,108.3,M,,,,0000*0B
$GPGGA,072052.000,4849.2334,N,00217.4496,E,1,07,1.3,108.4,M,,,,0000*09
$GPGGA,072053.000,4849.2308,N,00217.4472,E,1,07,1.3,107.2,M,,,,0000*04
$GPGGA,072054.000,4849.2274,N,00217.4440,E,1,07,1.3,106.2,M,,,,0000*09
$GPGGA,072055.000,4849.2236,N,00217.4398,E,1,08,1.1,105.4,M,,,,0000*04
$GPGGA,072056.000,4849.2193,N,00217.4345,E,1,08,1.1,104.6,M,,,,0000*08
$GPGGA,072057.000,4849.2150,N,00217.4282,E,1,08,1.1,104.4,M,,,,0000*0E
$GPGGA,072058.000,4849.2112,N,00217.4214,E,1,08,1.1,104.1,M,,,,0000*0D
$GPGGA,072059.000,4849.2078,N,00217.4146,E,1,08,1.1,104.3,M,,,,0000*07
$GPGGA,072100.000,4849.2050,N,00217.4079,E,1,08,1.1,104.3,M,,,,0000*0D
$GPGGA,072101.000,4849.2025,N,00217.4016,E,1,08,1.1,104.3,M,,,,0000*07
$GPGGA,072102.000,4849.2000,N,00217.3954,E,1,08,1.1,104.6,M,,,,0000*0E
$GPGGA,072103.000,4849.1975,N,00217.3891,E,1,08,1.1,104.6,M,,,,0000*0F
$GPGGA,072104.000,4849.1950,N,00217.3835,E,1,08,1.1,105.0,M,,,,0000*06
$GPGGA,072105.000,4849.1933,N,00217.3788,E,1,08,1.1,105.3,M,,,,0000*08
$GPGGA,072106.000,4849.1918,N,00217.3740,E,1,08,1.1,105.5,M,,,,0000*00
$GPGGA,072107.000,4849.1903,N,00217.3696,E,1,08,1.1,105.8,M,,,,0000*0C
$GPGGA,072108.000,4849.1888,N,00217.3653,E,1,08,1.1,106.3,M,,,,0000*00
$GPGGA,072109.000,4849.1870,N,00217.3608,E,1,08,1.1,105.9,M,,,,0000*01
$GPGGA,072110.000,4849.1855,N,00217.3566,E,1,08,1.1,105.9,M,,,,0000*05
$GPGGA,072111.000,4849.1840,N,00217.3525,E,1,08,1.1,106.0,M,,,,0000*0D
$GPGGA,072112.000,4849.1827,N,00217.3486,E,1,08,1.1,105.9,M,,,,0000*0D
$GPGGA,072113.000,4849.1818,N,00217.3455,E,1,08,1.1,106.0,M,,,,0000*04
$GPGGA,072114.000,4849.1813,N,00217.3435,E,1,08,1.1,106.1,M,,,,0000*0F
$GPGGA,072115.000,4849.1810,N,00217.3419,E,1,08,1.1,106.0,M,,,,0000*02
$GPGGA,072116.000,4849.1808,N,00217.3407,E,1,08,1.1,106.7,M,,,,0000*00
$GPGGA,072117.000,4849.1807,N,00217.3395,E,1,08,1.1,107.2,M,,,,0000*06
$GPGGA,072118.000,4849.1806,N,00217.3384,E,1,08,1.1,107.8,M,,,,0000*02
$GPGGA,072119.000,4849.1806,N,00217.3376,E,1,08,1.1,108.2,M,,,,0000*0B
$GPGGA,072120.000,4849.1806,N,00217.3371,E,1,08,1.1,108.4,M,,,,0000*00
$GPGGA,072121.000,4849.1807,N,00217.3371,E,1,08,1.1,109.5,M,,,,0000*00
$GPGGA,072122.000,4849.1807,N,00217.3371,E,1,08,1.1,109.5,M,,,,0000*03
$GPGGA,072123.000,4849.1807,N,00217.3371,E,1,08,1.1,109.5,M,,,,0000*02
$GPGGA,072124.000,4849.1807,N,00217.3371,E,1,08,1.1,109.5,M,,,,0000*05
$GPGGA,072125.000,4849.1807,N,00217.3371,E,1,08,1.1,109.5,M,,,,0000*04
$GPGGA,072126.000,4849.1807,N,00217.3371,E,1,08,1.1,109.5,M,,,,0000*07
$GPGGA,072127.000,4849.1807,N,00217.3371,E,1,08,1.1,109.5,M,,,,0000*06
$GPGGA,072128.000,4849.1807,N,00217.3371,E,1,08,1.1,109.5,M,,,,0000*09
$GPGGA,072129.000,4849.1807,N,00217.3371,E,1,08,1.1,109.5,M,,,,0000*08
$GPGGA,072130.000,4849.1808,N,00217.3343,E,1,08,1.1,115.8,M,,,,0000*0E
$GPGGA,072131.000,4849.1803,N,00217.3319,E,1,08,1.1,116.1,M,,,,0000*01
$GPGGA,072132.000,4849.1793,N,00217.3284,E,1,08,1.1,115.8,M,,,,0000*0B
$GPGGA,072133.000,4849.1778,N,00217.3242,E,1,08,1.1,115.5,M,,,,0000*08
$GPGGA,072134.000,4849.1763,N,00217.3198,E,1,08,1.1,115.1,M,,,,0000*05
$GPGGA,072135.000,4849.1747,N,00217.3151,E,1,08,1.1,114.8,M,,,,0000*0F
$GPGGA,072136.000,4849.1729,N,00217.3101,E,1,08,1.1,114.8,M,,,,0000*01
$GPGGA,072137.000,4849.1709,N,00217.3050,E,1,08,1.1,115.0,M,,,,0000*0E
$GPGGA,072138.000,4849.1688,N,00217.3003,E,1,08,1.1,115.3,M,,,,0000*0C
$GPGGA,072139.000,4849.1666,N,00217.2953,E,1,08,1.1,115.5,M,,,,0000*06
$GPGGA,072140.000,4849.1643,N,00217.2906,E,1,08,1.1,115.5,M,,,,0000*0F
$GPGGA,072141.000,4849.1617,N,00217.2859,E,1,08,1.1,115.9,M,,,,0000*08
$GPGGA,072142.000,4849.1588,N,00217.2798,E,1,08,1.1,117.1,M,,,,0000*06
$GPGGA,072143.000,4849.1559,N,00217.2722,E,1,08,1.1,118.4,M,,,,0000*00
$GPGGA,072144.000,4849.1532,N,00217.2633,E,1,08,1.1,118.9,M,,,,0000*06
$GPGGA,072145.000,4849.1502,N,00217.2552,E,1,08,1.1,118.9,M,,,,0000*00
$GPGGA,072146.001,4849.1476,N,00217.2482,E,1,08,1.1,118.5,M,,,,0000*00
$GPGGA,072147.000,4849.1443,N,00217.2410,E,1,08,1.1,117.8,M,,,,0000*0F
$GPGGA,072148.001,4849.1411,N,00217.2341,E,1,08,1.1,116.7,M,,,,0000*0B
$GPGGA,072149.000,4849.1385,N,00217.2272,E,1,08,1.1,116.7,M,,,,0000*00
$GPGGA,072150.000,4849.1355,N,00217.2204,E,1,08,1.1,115.5,M,,,,0000*05
$GPGGA,072151.000,4849.1329,N,00217.2141,E,1,08,1.1,114.7,M,,,,0000*0E
$GPGGA,072152.000,4849.1307,N,00217.2080,E,1,08,1.1,114.2,M,,,,0000*08
$GPGGA,072153.000,4849.1288,N,00217.2018,E,1,08,1.1,114.5,M,,,,0000*09
$GPGGA,072154.000,4849.1270,N,00217.1954,E,1,08,1.1,115.1,M,,,,0000*0E
$GPGGA,072155.000,4849.1254,N,00217.1895,E,1,08,1.1,115.5,M,,,,0000*01
$GPGGA,072156.000,4849.1237,N,00217.1835,E,1,08,1.1,115.9,M,,,,0000*01
$GPGGA,072157.000,4849.1216,N,00217.1775,E,1,08,1.1,115.7,M,,,,0000*06
$GPGGA,072158.000,4849.1190,N,00217.1712,E,1,08,1.1,114.8,M,,,,0000*0B
$GPGGA,072159.000,4849.1164,N,00217.1644,E,1,08,1.1,113.9,M,,,,0000*05
$GPGGA,072200.000,4849.1145,N,00217.1567,E,1,08,1.1,113.9,M,,,,0000*0B
$GPGGA,072201.000,4849.1120,N,00217.1488,E,1,08,1.1,113.3,M,,,,0000*03
$GPGGA,072202.001,4849.1094,N,00217.1408,E,1,08,1.1,112.3,M,,,,0000*06
$GPGGA,072203.000,4849.1069,N,00217.1325,E,1,08,1.1,111.1,M,,,,0000*0D
$GPGGA,072204.000,4849.1051,N,00217.1240,E,1,08,1.1,111.0,M,,,,0000*02
$GPGGA,072205.000,4849.1032,N,00217.1156,E,1,08,1.1,110.9,M,,,,0000*0A
$GPGGA,072206.000,4849.1006,N,00217.1074,E,1,08,1.1,109.8,M,,,,0000*06
$GPGGA,072207.000,4849.0984,N,00217.0998,E,1,08,1.1,109.1,M,,,,0000*06
$GPGGA,072208.000,4849.0965,N,00217.0925,E,1,08,1.1,108.0,M,,,,0000*00
$GPGGA,072209.000,4849.0957,N,00217.0856,E,1,08,1.1,107.7,M,,,,0000*0D
$GPGGA,072210.000,4849.0949,N,00217.0788,E,1,08,1.1,107.1,M,,,,0000*00
$GPGGA,072211.000,4849.0933,N,00217.0720,E,1,08,1.1,106.4,M,,,,0000*0A
$GPGGA,072212.000,4849.0909,N,00217.0652,E,1,08,1.1,105.7,M,,,,0000*04
$GPGGA,072213.000,4849.0875,N,00217.0582,E,1,08,1.1,104.6,M,,,,0000*01
$GPGGA,072214.000,4849.0842,N,00217.0514,E,1,08,1.1,103.8,M,,,,0000*04
$GPGGA,072215.000,4849.0815,N,00217.0445,E,1,08,1.1,103.5,M,,,,0000*0F
$GPGGA,072216.000,4849.0785,N,00217.0374,E,1,08,1.1,103.5,M,,,,0000*0F
$GPGGA,072217.000,4849.0751,N,00217.0303,E,1,08,1.1,103.1,M,,,,0000*03
$GPGGA,072218.000,4849.0728,N,00217.0241,E,1,08,1.1,103.3,M,,,,0000*07
$GPGGA,072219.000,4849.0701,N,00217.0170,E,1,08,1.1,104.0,M,,,,0000*08
$GPGGA,072220.000,4849.0668,N,00217.0093,E,1,08,1.1,104.5,M,,,,0000*05
$GPGGA,072221.000,4849.0630,N,00217.0014,E,1,08,1.1,104.4,M,,,,0000*07
$GPGGA,072222.000,4849.0605,N,00216.9936,E,1,08,1.1,105.3,M,,,,0000*05
$GPGGA,072223.000,4849.0573,N,00216.9857,E,1,08,1.1,105.4,M,,,,0000*07
$GPGGA,072224.000,4849.0534,N,00216.9773,E,1,08,1.1,106.2,M,,,,0000*0F
$GPGGA,072225.000,4849.0497,N,00216.9685,E,1,08,1.1,106.9,M,,,,0000*05
$GPGGA,072226.000,4849.0452,N,00216.9591,E,1,08,1.1,106.6,M,,,,0000*06
$GPGGA,072227.000,4849.0411,N,00216.9497,E,1,08,1.1,106.4,M,,,,0000*05
$GPGGA,072228.000,4849.0379,N,00216.9404,E,1,07,1.7,107.2,M,,,,0000*07
$GPGGA,072229.000,4849.0351,N,00216.9310,E,1,08,1.1,107.4,M,,,,0000*01
$GPGGA,072230.000,4849.0326,N,00216.9214,E,1,08,1.1,108.4,M,,,,0000*03
$GPGGA,072231.000,4849.0303,N,00216.9116,E,1,08,1.1,109.9,M,,,,0000*08
$GPGGA,072232.000,4849.0283,N,00216.9017,E,1,08,1.1,111.2,M,,,,0000*00
$GPGGA,072233.000,4849.0261,N,00216.8915,E,1,08,1.1,112.4,M,,,,0000*02
$GPGGA,072234.000,4849.0232,N,00216.8815,E,1,08,1.1,113.3,M,,,,0000*04
$GPGGA,072235.001,4849.0198,N,00216.8721,E,1,08,1.1,112.8,M,,,,0000*05
$GPGGA,072236.000,4849.0163,N,00216.8632,E,1,08,1.1,112.4,M,,,,0000*0C
$GPGGA,072237.000,4849.0130,N,00216.8543,E,1,08,1.1,112.4,M,,,,0000*0E
$GPGGA,072238.000,4849.0095,N,00216.8451,E,1,08,1.1,112.4,M,,,,0000*0D
$GPGGA,072239.000,4849.0057,N,00216.8362,E,1,08,1.1,112.4,M,,,,0000*05
$GPGGA,072240.000,4849.0017,N,00216.8278,E,1,08,1.1,112.8,M,,,,0000*09
$GPGGA,072241.000,4848.9970,N,00216.8198,E,1,08,1.1,113.2,M,,,,0000*0E
$GPGGA,072242.000,4848.9922,N,00216.8125,E,1,08,1.1,113.5,M,,,,0000*0B
$GPGGA,072243.000,4848.9877,N,00216.8058,E,1,08,1.1,114.3,M,,,,0000*01
$GPGGA,072244.000,4848.9828,N,00216.8004,E,1,08,1.1,114.2,M,,,,0000*04
$GPGGA,072245.000,4848.9779,N,00216.7953,E,1,08,1.1,114.6,M,,,,0000*0E
$GPGGA,072246.000,4848.9741,N,00216.7907,E,1,08,1.1,114.5,M,,,,0000*04
$GPGGA,072247.000,4848.9700,N,00216.7857,E,1,08,1.1,114.1,M,,,,0000*00
$GPGGA,072248.000,4848.9662,N,00216.7807,E,1,08,1.1,113.0,M,,,,0000*09
$GPGGA,072249.000,4848.9630,N,00216.7762,E,1,08,1.1,112.9,M,,,,0000*0B
$GPGGA,072250.000,4848.9590,N,00216.7710,E,1,08,1.1,112.1,M,,,,0000*07
$GPGGA,072251.001,4848.9549,N,00216.7654,E,1,08,1.1,111.5,M,,,,0000*05
$GPGGA,072252.000,4848.9509,N,00216.7601,E,1,08,1.1,111.6,M,,,,0000*00
$GPGGA,072253.000,4848.9466,N,00216.7547,E,1,08,1.1,111.7,M,,,,0000*09
$GPGGA,072254.000,4848.9426,N,00216.7495,E,1,08,1.1,111.8,M,,,,0000*0B
$GPGGA,072255.000,4848.9397,N,00216.7456,E,1,08,1.1,111.6,M,,,,0000*06
$GPGGA,072256.000,4848.9357,N,00216.7415,E,1,08,1.1,111.5,M,,,,0000*0D
$GPGGA,072257.000,4848.9323,N,00216.7384,E,1,08,1.1,111.3,M,,,,0000*06
$GPGGA,072258.001,4848.9292,N,00216.7353,E,1,08,1.1,111.1,M,,,,0000*0B
$GPGGA,072259.000,4848.9262,N,00216.7320,E,1,08,1.1,111.0,M,,,,0000*01
$GPGGA,072300.000,4848.9236,N,00216.7290,E,1,08,1.1,110.7,M,,,,0000*01
$GPGGA,072301.000,4848.9213,N,00216.7263,E,1,08,1.1,110.2,M,,,,0000*0E
$GPGGA,072302.000,4848.9191,N,00216.7237,E,1,08,1.1,110.1,M,,,,0000*06
$GPGGA,072303.000,4848.9171,N,00216.7212,E,1,08,1.1,109.9,M,,,,0000*0E
$GPGGA,072304.000,4848.9146,N,00216.7184,E,1,08,1.1,109.9,M,,,,0000*01
$GPGGA,072305.000,4848.9115,N,00216.7152,E,1,08,1.1,110.5,M,,,,0000*09
$GPGGA,072306.000,4848.9085,N,00216.7119,E,1,08,1.1,111.3,M,,,,0000*0A
$GPGGA,072307.000,4848.9059,N,00216.7089,E,1,08,1.1,111.6,M,,,,0000*07
$GPGGA,072308.000,4848.9039,N,00216.7068,E,1,08,1.1,111.5,M,,,,0000*02
$GPGGA,072309.000,4848.9034,N,00216.7064,E,1,08,1.1,110.2,M,,,,0000*04
$GPGGA,072310.000,4848.9029,N,00216.7059,E,1,08,1.1,109.6,M,,,,0000*02
$GPGGA,072311.000,4848.9028,N,00216.7058,E,1,08,1.1,108.8,M,,,,0000*0C
$GPGGA,072312.000,4848.9028,N,00216.7057,E,1,08,1.1,108.6,M,,,,0000*0E
$GPGGA,072313.000,4848.9032,N,00216.7062,E,1,08,1.1,109.2,M,,,,0000*07
$GPGGA,072314.000,4848.9032,N,00216.7062,E,1,08,1.1,109.2,M,,,,0000*00
$GPGGA,072315.000,4848.9020,N,00216.7045,E,1,08,1.1,109.8,M,,,,0000*0D
$GPGGA,072316.000,4848.9010,N,00216.7028,E,1,08,1.1,109.8,M,,,,0000*06
$GPGGA,072317.000,4848.8991,N,00216.7005,E,1,08,1.1,110.2,M,,,,0000*0B
$GPGGA,072318.000,4848.8971,N,00216.6982,E,1,08,1.1,110.7,M,,,,0000*08
$GPGGA,072319.000,4848.8947,N,00216.6950,E,1,08,1.1,110.1,M,,,,0000*05
$GPGGA,072320.000,4848.8919,N,00216.6911,E,1,08,1.1,109.0,M,,,,0000*08
$GPGGA,072321.000,4848.8889,N,00216.6874,E,1,08,1.1,108.4,M,,,,0000*06
$GPGGA,072322.000,4848.8853,N,00216.6844,E,1,08,1.1,107.8,M,,,,0000*02
$GPGGA,072323.000,4848.8816,N,00216.6827,E,1,08,1.1,107.3,M,,,,0000*0C
$GPGGA,072324.000,4848.8782,N,00216.6825,E,1,08,1.1,107.2,M,,,,0000*0A
$GPGGA,072325.000,4848.8743,N,00216.6826,E,1,07,1.2,107.4,M,,,,0000*0F
$GPGGA,072326.000,4848.8698,N,00216.6826,E,1,07,1.2,107.4,M,,,,0000*0B
$GPGGA,072327.000,4848.8654,N,00216.6827,E,1,08,1.1,107.7,M,,,,0000*04
$GPGGA,072328.001,4848.8619,N,00216.6826,E,1,08,1.1,107.7,M,,,,0000*02
$GPGGA,072329.000,4848.8585,N,00216.6810,E,1,08,1.1,107.3,M,,,,0000*05
$GPGGA,072330.000,4848.8556,N,00216.6774,E,1,08,1.1,106.7,M,,,,0000*0B
$GPGGA,072331.000,4848.8529,N,00216.6716,E,1,08,1.1,106.5,M,,,,0000*04
$GPGGA,072332.000,4848.8508,N,00216.6645,E,1,08,1.1,106.9,M,,,,0000*0F
$GPGGA,072333.000,4848.8487,N,00216.6564,E,1,08,1.1,108.0,M,,,,0000*0F
$GPGGA,072334.000,4848.8469,N,00216.6481,E,1,08,1.1,108.9,M,,,,0000*0B
$GPGGA,072335.000,4848.8448,N,00216.6395,E,1,08,1.1,109.4,M,,,,0000*07
$GPGGA,072336.000,4848.8422,N,00216.6303,E,1,08,1.1,110.1,M,,,,0000*0A
$GPGGA,072337.000,4848.8399,N,00216.6205,E,1,08,1.1,110.4,M,,,,0000*0E
$GPGGA,072338.000,4848.8377,N,00216.6098,E,1,08,1.1,110.8,M,,,,0000*0B
$GPGGA,072339.000,4848.8354,N,00216.5987,E,1,08,1.1,111.2,M,,,,0000*04
$GPGGA,072340.000,4848.8330,N,00216.5877,E,1,08,1.1,111.6,M,,,,0000*02
$GPGGA,072341.000,4848.8307,N,00216.5766,E,1,08,1.1,112.6,M,,,,0000*0B
$GPGGA,072342.000,4848.8282,N,00216.5653,E,1,08,1.1,113.3,M,,,,0000*07
$GPGGA,072343.000,4848.8257,N,00216.5539,E,1,08,1.1,114.1,M,,,,0000*04
$GPGGA,072344.000,4848.8232,N,00216.5425,E,1,08,1.1,115.2,M,,,,0000*0E
$GPGGA,072345.000,4848.8207,N,00216.5312,E,1,08,1.1,116.0,M,,,,0000*0B
$GPGGA,072346.000,4848.8181,N,00216.5198,E,1,08,1.1,116.5,M,,,,0000*00
$GPGGA,072347.000,4848.8155,N,00216.5083,E,1,08,1.1,117.2,M,,,,0000*05
$GPGGA,072348.000,4848.8130,N,00216.4968,E,1,08,1.1,117.6,M,,,,0000*00
$GPGGA,072349.000,4848.8105,N,00216.4855,E,1,08,1.1,118.7,M,,,,0000*06
$GPGGA,072350.000,4848.8083,N,00216.4744,E,1,07,1.3,119.7,M,,,,0000*02
$GPGGA,072351.000,4848.8063,N,00216.4636,E,1,08,1.1,120.4,M,,,,0000*0D
$GPGGA,072352.000,4848.8032,N,00216.4541,E,1,08,1.1,121.3,M,,,,0000*0F
$GPGGA,072353.000,4848.7987,N,00216.4445,E,1,08,1.1,121.8,M,,,,0000*08
$GPGGA,072354.000,4848.7941,N,00216.4357,E,1,08,1.1,122.0,M,,,,0000*0A
$GPGGA,072355.000,4848.7886,N,00216.4269,E,1,08,1.1,122.3,M,,,,0000*0E
$GPGGA,072356.000,4848.7837,N,00216.4189,E,1,08,1.1,123.4,M,,,,0000*0C
$GPGGA,072357.000,4848.7795,N,00216.4116,E,1,08,1.1,123.8,M,,,,0000*00
$GPGGA,072358.000,4848.7758,N,00216.4055,E,1,08,1.1,124.3,M,,,,0000*04
$GPGGA,072359.000,4848.7732,N,00216.4017,E,1,09,1.0,123.6,M,,,,0000*0D
$GPGGA,072400.000,4848.7713,N,00216.3992,E,1,09,1.0,123.5,M,,,,0000*05
$GPGGA,072401.000,4848.7707,N,00216.3981,E,1,09,1.0,123.5,M,,,,0000*03
$GPGGA,072402.000,4848.7720,N,00216.3985,E,1,09,1.0,125.0,M,,,,0000*02
$GPGGA,072403.000,4848.7723,N,00216.3985,E,1,09,1.0,125.1,M,,,,0000*01
$GPGGA,072404.000,4848.7736,N,00216.3989,E,1,09,1.0,126.7,M,,,,0000*0B
$GPGGA,072405.000,4848.7736,N,00216.3989,E,1,09,1.0,126.7,M,,,,0000*0A
$GPGGA,072406.000,4848.7736,N,00216.3989,E,1,09,1.0,126.7,M,,,,0000*09
$GPGGA,072407.000,4848.7736,N,00216.3989,E,1,09,1.0,126.7,M,,,,0000*08
$GPGGA,072408.000,4848.7736,N,00216.3989,E,1,09,1.0,126.7,M,,,,0000*07
$GPGGA,072409.001,4848.7736,N,00216.3989,E,1,09,1.0,126.7,M,,,,0000*07
$GPGGA,072410.000,4848.7736,N,00216.3989,E,1,09,1.0,126.7,M,,,,0000*0E
$GPGGA,072411.000,4848.7736,N,00216.3989,E,1,09,1.0,126.7,M,,,,0000*0F
$GPGGA,072412.000,4848.7736,N,00216.3989,E,1,09,1.0,126.7,M,,,,0000*0C
$GPGGA,072413.000,4848.7736,N,00216.3989,E,1,09,1.0,126.7,M,,,,0000*0D
$GPGGA,072414.000,4848.7736,N,00216.3989,E,1,09,1.0,126.7,M,,,,0000*0A
$GPGGA,072415.000,4848.7736,N,00216.3989,E,1,09,1.0,126.7,M,,,,0000*0B
$GPGGA,072416.000,4848.7736,N,00216.3989,E,1,09,1.0,126.7,M,,,,0000*08
$GPGGA,072417.000,4848.7736,N,00216.3989,E,1,09,1.0,126.7,M,,,,0000*09
$GPGGA,072418.000,4848.7736,N,00216.3989,E,1,09,1.0,126.7,M,,,,0000*06
$GPGGA,072419.000,4848.7736,N,00216.3989,E,1,09,1.0,126.7,M,,,,0000*07
$GPGGA,072420.000,4848.7736,N,00216.3989,E,1,09,1.0,126.7,M,,,,0000*0D
$GPGGA,072421.001,4848.7736,N,00216.3989,E,1,09,1.0,126.7,M,,,,0000*0D
$GPGGA,072422.000,4848.7736,N,00216.3989,E,1,09,1.0,126.7,M,,,,0000*0F
$GPGGA,072423.000,4848.7736,N,00216.3989,E,1,09,1.0,126.7,M,,,,0000*0E
$GPGGA,072424.000,4848.7736,N,00216.3989,E,1,09,1.0,126.7,M,,,,0000*09
$GPGGA,072425.000,4848.7736,N,00216.3989,E,1,09,1.0,126.7,M,,,,0000*08
$GPGGA,072426.000,4848.7776,N,00216.3957,E,1,09,1.0,126.5,M,,,,0000*0E
$GPGGA,072427.000,4848.7765,N,00216.3944,E,1,09,1.0,126.5,M,,,,0000*0F
$GPGGA,072428.000,4848.7749,N,00216.3927,E,1,09,1.0,127.1,M,,,,0000*0E
$GPGGA,072429.000,4848.7730,N,00216.3899,E,1,09,1.0,127.8,M,,,,0000*0C
$GPGGA,072430.000,4848.7709,N,00216.3866,E,1,09,1.0,128.5,M,,,,0000*0C
$GPGGA,072431.000,4848.7687,N,00216.3822,E,1,09,1.0,129.3,M,,,,0000*0D
$GPGGA,072432.000,4848.7652,N,00216.3773,E,1,09,1.0,129.3,M,,,,0000*0D
$GPGGA,072433.001,4848.7615,N,00216.3721,E,1,09,1.0,128.8,M,,,,0000*03
$GPGGA,072434.000,4848.7577,N,00216.3665,E,1,09,1.0,128.1,M,,,,0000*0A
$GPGGA,072435.000,4848.7534,N,00216.3598,E,1,09,1.0,126.9,M,,,,0000*0B
$GPGGA,072436.000,4848.7501,N,00216.3534,E,1,09,1.0,127.3,M,,,,0000*03
$GPGGA,072437.000,4848.7468,N,00216.3465,E,1,09,1.0,128.0,M,,,,0000*05
$GPGGA,072438.000,4848.7432,N,00216.3391,E,1,09,1.0,128.9,M,,,,0000*00
$GPGGA,072439.000,4848.7398,N,00216.3316,E,1,09,1.0,129.6,M,,,,0000*07
$GPGGA,072440.000,4848.7364,N,00216.3237,E,1,08,1.2,130.3,M,,,,0000*06
$GPGGA,072441.000,4848.7325,N,00216.3154,E,1,08,1.2,130.1,M,,,,0000*06
$GPGGA,072442.001,4848.7275,N,00216.3071,E,1,09,1.0,129.9,M,,,,0000*05
$GPGGA,072443.000,4848.7228,N,00216.2981,E,1,09,1.0,130.4,M,,,,0000*0F
$GPGGA,072444.000,4848.7183,N,00216.2883,E,1,09,1.0,131.9,M,,,,0000*05
$GPGGA,072445.000,4848.7116,N,00216.2781,E,1,09,1.0,129.9,M,,,,0000*0C
$GPGGA,072446.000,4848.7051,N,00216.2686,E,1,09,1.0,128.7,M,,,,0000*04
$GPGGA,072447.000,4848.7001,N,00216.2597,E,1,08,1.2,127.6,M,,,,0000*0E
$GPGGA,072448.000,4848.6952,N,00216.2519,E,1,08,1.2,127.9,M,,,,0000*06
$GPGGA,072449.000,4848.6913,N,00216.2442,E,1,08,1.2,128.0,M,,,,0000*0B
$GPGGA,072450.000,4848.6867,N,00216.2366,E,1,09,1.0,126.7,M,,,,0000*0A
$GPGGA,072451.001,4848.6818,N,00216.2296,E,1,09,1.0,126.1,M,,,,0000*0A
$GPGGA,072452.000,4848.6769,N,00216.2231,E,1,09,1.0,125.1,M,,,,0000*0F
$GPGGA,072453.000,4848.6721,N,00216.2173,E,1,09,1.0,125.0,M,,,,0000*06
$GPGGA,072454.000,4848.6664,N,00216.2114,E,1,09,1.0,125.0,M,,,,0000*00
$GPGGA,072455.000,4848.6598,N,00216.2058,E,1,09,1.0,125.1,M,,,,0000*09
$GPGGA,072456.000,4848.6530,N,00216.2008,E,1,09,1.0,125.3,M,,,,0000*0F
$GPGGA,072457.001,4848.6463,N,00216.1960,E,1,09,1.0,124.4,M,,,,0000*0A
$GPGGA,072458.000,4848.6400,N,00216.1918,E,1,09,1.0,123.7,M,,,,0000*0A
$GPGGA,072459.000,4848.6335,N,00216.1870,E,1,09,1.0,125.4,M,,,,0000*00
$GPGGA,072500.000,4848.6274,N,00216.1828,E,1,09,1.0,126.2,M,,,,0000*01
$GPGGA,072501.000,4848.6220,N,00216.1789,E,1,09,1.0,126.9,M,,,,0000*0E
$GPGGA,072502.000,4848.6166,N,00216.1755,E,1,09,1.0,127.7,M,,,,0000*02
$GPGGA,072503.000,4848.6118,N,00216.1720,E,1,09,1.0,129.1,M,,,,0000*00
$GPGGA,072504.000,4848.6085,N,00216.1689,E,1,09,1.0,129.7,M,,,,0000*06
$GPGGA,072505.000,4848.6057,N,00216.1660,E,1,09,1.0,130.1,M,,,,0000*01
$GPGGA,072506.000,4848.6022,N,00216.1629,E,1,09,1.0,130.1,M,,,,0000*0D
$GPGGA,072507.000,4848.5979,N,00216.1600,E,1,09,1.0,130.0,M,,,,0000*02
$GPGGA,072508.000,4848.5928,N,00216.1562,E,1,09,1.0,130.6,M,,,,0000*08
$GPGGA,072509.001,4848.5875,N,00216.1528,E,1,09,1.0,130.4,M,,,,0000*0D
$GPGGA,072510.000,4848.5818,N,00216.1485,E,1,09,1.0,130.4,M,,,,0000*09
$GPGGA,072511.000,4848.5755,N,00216.1441,E,1,09,1.0,131.5,M,,,,0000*06
$GPGGA,072512.000,4848.5689,N,00216.1393,E,1,09,1.0,132.4,M,,,,0000*0F
$GPGGA,072513.000,4848.5625,N,00216.1347,E,1,09,1.0,133.2,M,,,,0000*06
$GPGGA,072514.001,4848.5564,N,00216.1305,E,1,09,1.0,133.0,M,,,,0000*02
$GPGGA,072515.000,4848.5504,N,00216.1266,E,1,09,1.0,132.9,M,,,,0000*08
$GPGGA,072516.001,4848.5446,N,00216.1230,E,1,09,1.0,132.8,M,,,,0000*0F
$GPGGA,072517.000,4848.5390,N,00216.1193,E,1,09,1.0,132.4,M,,,,0000*05
$GPGGA,072518.000,4848.5336,N,00216.1156,E,1,09,1.0,131.5,M,,,,0000*0D
$GPGGA,072519.000,4848.5278,N,00216.1122,E,1,08,1.2,132.5,M,,,,0000*04
$GPGGA,072520.000,4848.5223,N,00216.1089,E,1,08,1.2,131.9,M,,,,0000*0F
$GPGGA,072521.000,4848.5173,N,00216.1059,E,1,09,1.0,131.9,M,,,,0000*06
$GPGGA,072522.000,4848.5120,N,00216.1031,E,1,09,1.0,132.0,M,,,,0000*07
$GPGGA,072523.001,4848.5058,N,00216.1003,E,1,09,1.0,132.2,M,,,,0000*0A
$GPGGA,072524.000,4848.4978,N,00216.0970,E,1,09,1.0,132.1,M,,,,0000*09
$GPGGA,072525.001,4848.4894,N,00216.0940,E,1,09,1.0,131.2,M,,,,0000*09
$GPGGA,072526.000,4848.4814,N,00216.0908,E,1,09,1.0,131.4,M,,,,0000*09
$GPGGA,072527.000,4848.4729,N,00216.0866,E,1,09,1.0,132.9,M,,,,0000*0E
$GPGGA,072528.000,4848.4647,N,00216.0829,E,1,08,1.2,133.7,M,,,,0000*0F
$GPGGA,072529.000,4848.4569,N,00216.0800,E,1,08,1.2,134.3,M,,,,0000*09
$GPGGA,072530.000,4848.4494,N,00216.0769,E,1,09,1.0,134.8,M,,,,0000*0A
$GPGGA,072531.000,4848.4414,N,00216.0734,E,1,07,1.2,134.5,M,,,,0000*0A
$GPGGA,072532.000,4848.4336,N,00216.0692,E,1,09,1.0,134.5,M,,,,0000*0F
$GPGGA,072533.000,4848.4257,N,00216.0654,E,1,09,1.0,134.9,M,,,,0000*0E
$GPGGA,072534.000,4848.4180,N,00216.0613,E,1,09,1.0,135.3,M,,,,0000*08
$GPGGA,072535.000,4848.4103,N,00216.0575,E,1,09,1.0,135.6,M,,,,0000*04
$GPGGA,072536.000,4848.4028,N,00216.0540,E,1,09,1.0,135.5,M,,,,0000*0A
$GPGGA,072537.000,4848.3952,N,00216.0502,E,1,09,1.0,135.8,M,,,,0000*03
$GPGGA,072538.000,4848.3877,N,00216.0465,E,1,09,1.0,135.8,M,,,,0000*0A
$GPGGA,072539.000,4848.3801,N,00216.0428,E,1,09,1.0,136.5,M,,,,0000*0D
$GPGGA,072540.000,4848.3724,N,00216.0389,E,1,09,1.0,137.1,M,,,,0000*02
$GPGGA,072541.000,4848.3649,N,00216.0350,E,1,08,1.2,137.3,M,,,,0000*0C
$GPGGA,072542.000,4848.3575,N,00216.0307,E,1,08,1.2,137.5,M,,,,0000*07
$GPGGA,072543.000,4848.3500,N,00216.0268,E,1,09,1.0,138.4,M,,,,0000*01
$GPGGA,072544.000,4848.3429,N,00216.0227,E,1,09,1.0,139.1,M,,,,0000*03
$GPGGA,072545.000,4848.3358,N,00216.0189,E,1,09,1.0,139.4,M,,,,0000*01
$GPGGA,072546.000,4848.3291,N,00216.0152,E,1,09,1.0,139.7,M,,,,0000*03
$GPGGA,072547.000,4848.3226,N,00216.0114,E,1,09,1.0,139.5,M,,,,0000*0E
$GPGGA,072548.000,4848.3164,N,00216.0080,E,1,09,1.0,139.9,M,,,,0000*04
$GPGGA,072549.000,4848.3107,N,00216.0046,E,1,09,1.0,140.6,M,,,,0000*0B
$GPGGA,072550.000,4848.3056,N,00216.0009,E,1,09,1.0,140.7,M,,,,0000*0C
$GPGGA,072551.000,4848.3008,N,00215.9970,E,1,09,1.0,141.1,M,,,,0000*0C
$GPGGA,072552.000,4848.2962,N,00215.9932,E,1,09,1.0,141.9,M,,,,0000*05
$GPGGA,072553.000,4848.2912,N,00215.9895,E,1,09,1.0,142.7,M,,,,0000*02
$GPGGA,072554.000,4848.2860,N,00215.9855,E,1,08,1.2,143.3,M,,,,0000*0B
$GPGGA,072555.000,4848.2806,N,00215.9818,E,1,08,1.2,144.3,M,,,,0000*04
$GPGGA,072556.000,4848.2756,N,00215.9780,E,1,09,1.0,144.6,M,,,,0000*05
$GPGGA,072557.000,4848.2706,N,00215.9741,E,1,09,1.0,145.4,M,,,,0000*0F
$GPGGA,072558.000,4848.2649,N,00215.9703,E,1,08,1.1,145.1,M,,,,0000*09
$GPGGA,072559.000,4848.2596,N,00215.9668,E,1,09,1.0,144.4,M,,,,0000*01
$GPGGA,072600.000,4848.2544,N,00215.9635,E,1,09,1.0,144.7,M,,,,0000*0A
$GPGGA,072601.000,4848.2491,N,00215.9603,E,1,09,1.0,144.8,M,,,,0000*08
$GPGGA,072602.000,4848.2440,N,00215.9570,E,1,09,1.0,144.9,M,,,,0000*01
$GPGGA,072603.000,4848.2396,N,00215.9533,E,1,09,1.0,145.2,M,,,,0000*01
$GPGGA,072604.000,4848.2344,N,00215.9553,E,1,09,1.0,145.6,M,,,,0000*0B
$GPGGA,072605.001,4848.2316,N,00215.9594,E,1,09,1.0,145.2,M,,,,0000*03
$GPGGA,072606.000,4848.2312,N,00215.9654,E,1,09,1.0,143.2,M,,,,0000*0C
$GPGGA,072607.001,4848.2309,N,00215.9717,E,1,09,1.0,142.0,M,,,,0000*03
$GPGGA,072608.000,4848.2306,N,00215.9779,E,1,09,1.0,141.1,M,,,,0000*08
$GPGGA,072609.001,4848.2298,N,00215.9838,E,1,09,1.0,139.8,M,,,,0000*02
$GPGGA,072610.000,4848.2286,N,00215.9893,E,1,09,1.0,139.0,M,,,,0000*0D
$GPGGA,072611.000,4848.2274,N,00215.9947,E,1,09,1.0,138.3,M,,,,0000*0B
$GPGGA,072612.000,4848.2258,N,00215.9999,E,1,09,1.0,137.9,M,,,,0000*00
$GPGGA,072613.000,4848.2234,N,00216.0046,E,1,09,1.0,136.9,M,,,,0000*0B
$GPGGA,072614.000,4848.2200,N,00216.0092,E,1,09,1.0,136.5,M,,,,0000*0E
$GPGGA,072615.000,4848.2162,N,00216.0134,E,1,09,1.0,136.3,M,,,,0000*03
$GPGGA,072616.000,4848.2118,N,00216.0169,E,1,09,1.0,136.1,M,,,,0000*07
$GPGGA,072617.000,4848.2073,N,00216.0199,E,1,09,1.0,135.8,M,,,,0000*0F
$GPGGA,072618.000,4848.2021,N,00216.0223,E,1,09,1.0,135.8,M,,,,0000*05
$GPGGA,072619.000,4848.1964,N,00216.0242,E,1,09,1.0,135.5,M,,,,0000*05
$GPGGA,072620.001,4848.1903,N,00216.0252,E,1,09,1.0,134.9,M,,,,0000*03
$GPGGA,072621.000,4848.1830,N,00216.0247,E,1,09,1.0,134.5,M,,,,0000*0A
$GPGGA,072622.000,4848.1752,N,00216.0237,E,1,09,1.0,134.4,M,,,,0000*04
$GPGGA,072623.000,4848.1676,N,00216.0229,E,1,09,1.0,134.2,M,,,,0000*0B
$GPGGA,072624.000,4848.1597,N,00216.0222,E,1,09,1.0,134.2,M,,,,0000*0B
$GPGGA,072625.000,4848.1519,N,00216.0219,E,1,09,1.0,134.0,M,,,,0000*06
$GPGGA,072626.000,4848.1442,N,00216.0220,E,1,09,1.0,134.9,M,,,,0000*09
$GPGGA,072627.000,4848.1365,N,00216.0217,E,1,09,1.0,136.0,M,,,,0000*05
$GPGGA,072628.000,4848.1294,N,00216.0211,E,1,09,1.0,136.8,M,,,,0000*0B
$GPGGA,072629.000,4848.1229,N,00216.0204,E,1,09,1.0,137.6,M,,,,0000*07
$GPGGA,072630.000,4848.1168,N,00216.0196,E,1,09,1.0,138.4,M,,,,0000*0C
$GPGGA,072631.000,4848.1114,N,00216.0188,E,1,09,1.0,139.1,M,,,,0000*0D
$GPGGA,072632.000,4848.1068,N,00216.0180,E,1,09,1.0,139.8,M,,,,0000*05
$GPGGA,072633.000,4848.1030,N,00216.0172,E,1,09,1.0,140.4,M,,,,0000*06
$GPGGA,072634.000,4848.0999,N,00216.0167,E,1,09,1.0,140.9,M,,,,0000*03
$GPGGA,072635.000,4848.0975,N,00216.0164,E,1,09,1.0,141.5,M,,,,0000*0E
$GPGGA,072636.000,4848.0961,N,00216.0161,E,1,09,1.0,142.0,M,,,,0000*0B
$GPGGA,072637.000,4848.0954,N,00216.0160,E,1,09,1.0,142.4,M,,,,0000*09
$GPGGA,072638.000,4848.0952,N,00216.0160,E,1,08,1.1,142.9,M,,,,0000*0D
$GPGGA,072639.000,4848.0952,N,00216.0160,E,1,08,1.1,143.2,M,,,,0000*06
$GPGGA,072640.000,4848.0952,N,00216.0160,E,1,07,2.1,143.2,M,,,,0000*04
$GPGGA,072641.000,4848.0952,N,00216.0160,E,1,07,2.1,143.2,M,,,,0000*05
$GPGGA,072642.000,4848.0952,N,00216.0160,E,1,07,2.1,143.2,M,,,,0000*06
$GPGGA,072643.000,4848.0952,N,00216.0160,E,1,07,2.1,143.2,M,,,,0000*07
$GPGGA,072644.000,4848.0952,N,00216.0160,E,1,07,2.1,143.2,M,,,,0000*00
$GPGGA,072645.000,4848.0952,N,00216.0160,E,1,07,2.1,143.2,M,,,,0000*01
$GPGGA,072646.000,4848.0952,N,00216.0160,E,1,07,2.1,143.2,M,,,,0000*02
$GPGGA,072647.000,4848.0952,N,00216.0160,E,1,07,2.1,143.2,M,,,,0000*03
$GPGGA,072648.000,4848.0952,N,00216.0160,E,1,07,2.1,143.2,M,,,,0000*0C
$GPGGA,072649.000,4848.0952,N,00216.0160,E,1,08,1.1,143.2,M,,,,0000*01
$GPGGA,072650.000,4848.0952,N,00216.0160,E,1,08,1.1,143.2,M,,,,0000*09
$GPGGA,072651.000,4848.0952,N,00216.0160,E,1,08,1.1,143.2,M,,,,0000*08
$GPGGA,072652.000,4848.0952,N,00216.0160,E,1,08,1.1,143.2,M,,,,0000*0B
$GPGGA,072653.000,4848.0952,N,00216.0160,E,1,08,1.1,143.2,M,,,,0000*0A
$GPGGA,072654.000,4848.0952,N,00216.0160,E,1,08,1.1,143.2,M,,,,0000*0D
$GPGGA,072655.000,4848.0952,N,00216.0160,E,1,08,1.1,143.2,M,,,,0000*0C
$GPGGA,072656.000,4848.0952,N,00216.0160,E,1,07,2.1,143.2,M,,,,0000*03
$GPGGA,072657.000,4848.0952,N,00216.0160,E,1,08,1.1,143.2,M,,,,0000*0E
$GPGGA,072658.000,4848.0952,N,00216.0160,E,1,08,1.1,143.2,M,,,,0000*01
$GPGGA,072659.000,4848.0952,N,00216.0160,E,1,08,1.1,143.2,M,,,,0000*00
$GPGGA,072700.000,4848.0952,N,00216.0160,E,1,08,1.1,143.2,M,,,,0000*0D
$GPGGA,072701.000,4848.0952,N,00216.0160,E,1,08,1.1,143.2,M,,,,0000*0C
$GPGGA,072702.000,4848.0952,N,00216.0160,E,1,08,1.1,143.2,M,,,,0000*0F
$GPGGA,072703.000,4848.0952,N,00216.0160,E,1,08,1.1,143.2,M,,,,0000*0E
$GPGGA,072704.000,4848.0952,N,00216.0160,E,1,08,1.1,143.2,M,,,,0000*09
$GPGGA,072705.000,4848.0952,N,00216.0160,E,1,08,1.1,143.2,M,,,,0000*08
$GPGGA,072706.000,4848.0952,N,00216.0160,E,1,08,1.1,143.2,M,,,,0000*0B
$GPGGA,072707.000,4848.0952,N,00216.0160,E,1,08,1.1,143.2,M,,,,0000*0A
$GPGGA,072708.000,4848.0952,N,00216.0160,E,1,09,1.0,143.2,M,,,,0000*05
$GPGGA,072709.000,4848.0952,N,00216.0160,E,1,08,1.1,143.2,M,,,,0000*04
$GPGGA,072710.001,4848.0952,N,00216.0160,E,1,09,1.0,143.2,M,,,,0000*0D
$GPGGA,072711.000,4848.0952,N,00216.0160,E,1,09,1.0,143.2,M,,,,0000*0D
$GPGGA,072712.000,4848.0952,N,00216.0160,E,1,09,1.0,143.2,M,,,,0000*0E
$GPGGA,072713.000,4848.0952,N,00216.0160,E,1,09,1.0,143.2,M,,,,0000*0F
$GPGGA,072714.000,4848.0952,N,00216.0160,E,1,09,1.0,143.2,M,,,,0000*08
$GPGGA,072715.000,4848.0952,N,00216.0160,E,1,09,1.0,143.2,M,,,,0000*09
$GPGGA,072716.000,4848.0952,N,00216.0160,E,1,09,1.0,143.2,M,,,,0000*0A
$GPGGA,072717.000,4848.0952,N,00216.0160,E,1,09,1.0,143.2,M,,,,0000*0B
$GPGGA,072718.000,4848.0952,N,00216.0160,E,1,09,1.0,143.2,M,,,,0000*04
$GPGGA,072719.000,4848.0952,N,00216.0160,E,1,09,1.0,143.2,M,,,,0000*05
$GPGGA,072720.000,4848.0916,N,00216.0184,E,1,09,1.0,150.8,M,,,,0000*0D
$GPGGA,072721.000,4848.0893,N,00216.0183,E,1,09,1.0,150.9,M,,,,0000*06
$GPGGA,072722.000,4848.0863,N,00216.0183,E,1,09,1.0,151.1,M,,,,0000*03
$GPGGA,072723.000,4848.0829,N,00216.0187,E,1,09,1.0,151.3,M,,,,0000*0A
$GPGGA,072724.000,4848.0790,N,00216.0195,E,1,08,1.2,151.6,M,,,,0000*05
$GPGGA,072725.000,4848.0745,N,00216.0208,E,1,09,1.0,151.8,M,,,,0000*06
$GPGGA,072726.000,4848.0694,N,00216.0226,E,1,08,1.1,152.1,M,,,,0000*0E
$GPGGA,072727.000,4848.0638,N,00216.0248,E,1,08,1.1,152.2,M,,,,0000*02
$GPGGA,072728.000,4848.0582,N,00216.0267,E,1,09,1.0,152.5,M,,,,0000*05
