$GPGGA,150915.461,4836.834,N,00228.788,E,1,12,1.0,0.0,M,0.0,M,,*6D
$GPGSA,A,3,01,02,03,04,05,06,07,08,09,10,11,12,1.0,1.0,1.0*30
$GPRMC,150915.461,A,4836.834,N,00228.788,E,027.2,292.8,231223,000.0,W*7C
$GPGGA,150916.461,4836.838,N,00228.778,E,1,12,1.0,0.0,M,0.0,M,,*6D
$GPGSA,A,3,01,02,03,04,05,06,07,08,09,10,11,12,1.0,1.0,1.0*30
$GPRMC,150916.461,A,4836.838,N,00228.778,E,030.5,309.4,231223,000.0,W*72
$GPGGA,150917.461,4836.844,N,00228.770,E,1,12,1.0,0.0,M,0.0,M,,*6F
$GPGSA,A,3,01,02,03,04,05,06,07,08,09,10,11,12,1.0,1.0,1.0*30
$GPRMC,150917.461,A,4836.844,N,00228.770,E,034.5,271.7,231223,000.0,W*79
$GPGGA,150918.461,4836.845,N,00228.756,E,1,12,1.0,0.0,M,0.0,M,,*65
$GPGSA,A,3,01,02,03,04,05,06,07,08,09,10,11,12,1.0,1.0,1.0*30
$GPRMC,150918.461,A,4836.845,N,00228.756,E,042.2,270.0,231223,000.0,W*73
$GPGGA,150919.461,4836.845,N,00228.738,E,1,12,1.0,0.0,M,0.0,M,,*6C
$GPGSA,A,3,01,02,03,04,05,06,07,08,09,10,11,12,1.0,1.0,1.0*30
$GPRMC,150919.461,A,4836.845,N,00228.738,E,105.6,266.1,231223,000.0,W*7A
$GPGGA,150920.461,4836.842,N,00228.694,E,1,12,1.0,0.0,M,0.0,M,,*66
$GPGSA,A,3,01,02,03,04,05,06,07,08,09,10,11,12,1.0,1.0,1.0*30
$GPRMC,150920.461,A,4836.842,N,00228.694,E,064.0,262.6,231223,000.0,W*73
$GPGGA,150921.461,4836.838,N,00228.668,E,1,12,1.0,0.0,M,0.0,M,,*69
$GPGSA,A,3,01,02,03,04,05,06,07,08,09,10,11,12,1.0,1.0,1.0*30
$GPRMC,150921.461,A,4836.838,N,00228.668,E,059.6,257.9,231223,000.0,W*7D
$GPGGA,150922.461,4836.833,N,00228.644,E,1,12,1.0,0.0,M,0.0,M,,*6F
$GPGSA,A,3,01,02,03,04,05,06,07,08,09,10,11,12,1.0,1.0,1.0*30
$GPRMC,150922.461,A,4836.833,N,00228.644,E,030.9,288.4,231223,000.0,W*74
$GPGGA,150923.461,4836.837,N,00228.632,E,1,12,1.0,0.0,M,0.0,M,,*6B
$GPGSA,A,3,01,02,03,04,05,06,07,08,09,10,11,12,1.0,1.0,1.0*30
$GPRMC,150923.461,A,4836.837,N,00228.632,E,031.5,234.6,231223,000.0,W*78
$GPGGA,150924.461,4836.831,N,00228.623,E,1,12,1.0,0.0,M,0.0,M,,*6A
$GPGSA,A,3,01,02,03,04,05,06,07,08,09,10,11,12,1.0,1.0,1.0*30
$GPRMC,150924.461,A,4836.831,N,00228.623,E,133.4,237.7,231223,000.0,W*79
$GPGGA,150925.461,4836.805,N,00228.583,E,1,12,1.0,0.0,M,0.0,M,,*65
$GPGSA,A,3,01,02,03,04,05,06,07,08,09,10,11,12,1.0,1.0,1.0*30
$GPRMC,150925.461,A,4836.805,N,00228.583,E,063.2,241.7,231223,000.0,W*75
$GPGGA,150926.461,4836.794,N,00228.562,E,1,12,1.0,0.0,M,0.0,M,,*6E
$GPGSA,A,3,01,02,03,04,05,06,07,08,09,10,11,12,1.0,1.0,1.0*30
$GPRMC,150926.461,A,4836.794,N,00228.562,E,079.1,235.7,231223,000.0,W*75
$GPGGA,150927.461,4836.778,N,00228.539,E,1,12,1.0,0.0,M,0.0,M,,*63
$GPGSA,A,3,01,02,03,04,05,06,07,08,09,10,11,12,1.0,1.0,1.0*30
$GPRMC,150927.461,A,4836.778,N,00228.539,E,052.3,223.1,231223,000.0,W*72
$GPGGA,150928.461,4836.766,N,00228.527,E,1,12,1.0,0.0,M,0.0,M,,*6C
$GPGSA,A,3,01,02,03,04,05,06,07,08,09,10,11,12,1.0,1.0,1.0*30
$GPRMC,150928.461,A,4836.766,N,00228.527,E,030.5,215.4,231223,000.0,W*7F
$GPGGA,150929.461,4836.758,N,00228.522,E,1,12,1.0,0.0,M,0.0,M,,*65
$GPGSA,A,3,01,02,03,04,05,06,07,08,09,10,11,12,1.0,1.0,1.0*30
$GPRMC,150929.461,A,4836.758,N,00228.522,E,028.7,225.6,231223,000.0,W*7C
$GPGGA,150930.461,4836.752,N,00228.515,E,1,12,1.0,0.0,M,0.0,M,,*63
$GPGSA,A,3,01,02,03,04,05,06,07,08,09,10,11,12,1.0,1.0,1.0*30
$GPRMC,150930.461,A,4836.752,N,00228.515,E,037.0,225.5,231223,000.0,W*70
$GPGGA,150931.461,4836.743,N,00228.506,E,1,12,1.0,0.0,M,0.0,M,,*60
$GPGSA,A,3,01,02,03,04,05,06,07,08,09,10,11,12,1.0,1.0,1.0*30
$GPRMC,150931.461,A,4836.743,N,00228.506,E,057.5,234.4,231223,000.0,W*71
$GPGGA,150932.461,4836.732,N,00228.490,E,1,12,1.0,0.0,M,0.0,M,,*6B
$GPGSA,A,3,01,02,03,04,05,06,07,08,09,10,11,12,1.0,1.0,1.0*30
$GPRMC,150932.461,A,4836.732,N,00228.490,E,029.8,237.4,231223,000.0,W*7D
$GPGGA,150933.461,4836.726,N,00228.481,E,1,12,1.0,0.0,M,0.0,M,,*6F
$GPGSA,A,3,01,02,03,04,05,06,07,08,09,10,11,12,1.0,1.0,1.0*30
$GPRMC,150933.461,A,4836.726,N,00228.481,E,052.6,237.0,231223,000.0,W*7F
$GPGGA,150934.461,4836.716,N,00228.465,E,1,12,1.0,0.0,M,0.0,M,,*61
$GPGSA,A,3,01,02,03,04,05,06,07,08,09,10,11,12,1.0,1.0,1.0*30
$GPRMC,150934.461,A,4836.716,N,00228.465,E,028.8,233.4,231223,000.0,W*72
$GPGGA,150935.461,4836.710,N,00228.457,E,1,12,1.0,0.0,M,0.0,M,,*67
$GPGSA,A,3,01,02,03,04,05,06,07,08,09,10,11,12,1.0,1.0,1.0*30
$GPRMC,150935.461,A,4836.710,N,00228.457,E,026.6,135.4,231223,000.0,W*71
$GPGGA,150936.461,4836.703,N,00228.463,E,1,12,1.0,0.0,M,0.0,M,,*61
$GPGSA,A,3,01,02,03,04,05,06,07,08,09,10,11,12,1.0,1.0,1.0*30
$GPRMC,150936.461,A,4836.703,N,00228.463,E,030.1,130.6,231223,000.0,W*70
$GPGGA,150937.461,4836.697,N,00228.471,E,1,12,1.0,0.0,M,0.0,M,,*6F
$GPGSA,A,3,01,02,03,04,05,06,07,08,09,10,11,12,1.0,1.0,1.0*30
$GPRMC,150937.461,A,4836.697,N,00228.471,E,030.1,130.6,231223,000.0,W*7E
$GPGGA,150938.461,4836.690,N,00228.479,E,1,12,1.0,0.0,M,0.0,M,,*6F
$GPGSA,A,3,01,02,03,04,05,06,07,08,09,10,11,12,1.0,1.0,1.0*30
$GPRMC,150938.461,A,4836.690,N,00228.479,E,031.5,127.3,231223,000.0,W*78
$GPGGA,150939.461,4836.684,N,00228.487,E,1,12,1.0,0.0,M,0.0,M,,*6A
$GPGSA,A,3,01,02,03,04,05,06,07,08,09,10,11,12,1.0,1.0,1.0*30
$GPRMC,150939.461,A,4836.684,N,00228.487,E,018.1,132.0,231223,000.0,W*75
$GPGGA,150940.461,4836.680,N,00228.492,E,1,12,1.0,0.0,M,0.0,M,,*64
$GPGSA,A,3,01,02,03,04,05,06,07,08,09,10,11,12,1.0,1.0,1.0*30
$GPRMC,150940.461,A,4836.680,N,00228.492,E,025.6,061.8,231223,000.0,W*7D
$GPGGA,150941.461,4836.684,N,00228.500,E,1,12,1.0,0.0,M,0.0,M,,*6B
$GPGSA,A,3,01,02,03,04,05,06,07,08,09,10,11,12,1.0,1.0,1.0*30
$GPRMC,150941.461,A,4836.684,N,00228.500,E,023.3,057.6,231223,000.0,W*7A
$GPGGA,150942.461,4836.689,N,00228.507,E,1,12,1.0,0.0,M,0.0,M,,*62
$GPGSA,A,3,01,02,03,04,05,06,07,08,09,10,11,12,1.0,1.0,1.0*30
$GPRMC,150942.461,A,4836.689,N,00228.507,E,040.9,062.5,231223,000.0,W*79
$GPGGA,150943.461,4836.696,N,00228.521,E,1,12,1.0,0.0,M,0.0,M,,*69
$GPGSA,A,3,01,02,03,04,05,06,07,08,09,10,11,12,1.0,1.0,1.0*30
$GPRMC,150943.461,A,4836.696,N,00228.521,E,045.5,056.4,231223,000.0,W*7D
$GPGGA,150944.461,4836.705,N,00228.534,E,1,12,1.0,0.0,M,0.0,M,,*61
$GPGSA,A,3,01,02,03,04,05,06,07,08,09,10,11,12,1.0,1.0,1.0*30
$GPRMC,150944.461,A,4836.705,N,00228.534,E,028.7,057.4,231223,000.0,W*7D
$GPGGA,150945.461,4836.710,N,00228.543,E,1,12,1.0,0.0,M,0.0,M,,*64
$GPGSA,A,3,01,02,03,04,05,06,07,08,09,10,11,12,1.0,1.0,1.0*30
$GPRMC,150945.461,A,4836.710,N,00228.543,E,037.5,060.1,231223,000.0,W*75
$GPGGA,150946.461,4836.717,N,00228.555,E,1,12,1.0,0.0,M,0.0,M,,*67
$GPGSA,A,3,01,02,03,04,05,06,07,08,09,10,11,12,1.0,1.0,1.0*30
$GPRMC,150946.461,A,4836.717,N,00228.555,E,041.3,060.5,231223,000.0,W*75
$GPGGA,150947.461,4836.724,N,00228.568,E,1,12,1.0,0.0,M,0.0,M,,*68
$GPGSA,A,3,01,02,03,04,05,06,07,08,09,10,11,12,1.0,1.0,1.0*30
$GPRMC,150947.461,A,4836.724,N,00228.568,E,034.7,054.8,231223,000.0,W*76
$GPGGA,150948.461,4836.731,N,00228.578,E,1,12,1.0,0.0,M,0.0,M,,*62
$GPGSA,A,3,01,02,03,04,05,06,07,08,09,10,11,12,1.0,1.0,1.0*30
$GPRMC,150948.461,A,4836.731,N,00228.578,E,053.1,122.5,231223,000.0,W*76
$GPGGA,150949.461,4836.721,N,00228.594,E,1,12,1.0,0.0,M,0.0,M,,*60
$GPGSA,A,3,01,02,03,04,05,06,07,08,09,10,11,12,1.0,1.0,1.0*30
$GPRMC,150949.461,A,4836.721,N,00228.594,E,056.4,125.6,231223,000.0,W*70
$GPGGA,150950.461,4836.710,N,00228.610,E,1,12,1.0,0.0,M,0.0,M,,*65
$GPGSA,A,3,01,02,03,04,05,06,07,08,09,10,11,12,1.0,1.0,1.0*30
$GPRMC,150950.461,A,4836.710,N,00228.610,E,078.8,126.9,231223,000.0,W*79
$GPGGA,150951.461,4836.693,N,00228.632,E,1,12,1.0,0.0,M,0.0,M,,*6E
$GPGSA,A,3,01,02,03,04,05,06,07,08,09,10,11,12,1.0,1.0,1.0*30
$GPRMC,150951.461,A,4836.693,N,00228.632,E,104.1,056.4,231223,000.0,W*7A
$GPGGA,150952.461,4836.714,N,00228.663,E,1,12,1.0,0.0,M,0.0,M,,*67
$GPGSA,A,3,01,02,03,04,05,06,07,08,09,10,11,12,1.0,1.0,1.0*30
$GPRMC,150952.461,A,4836.714,N,00228.663,E,104.9,062.7,231223,000.0,W*7F
$GPGGA,150953.461,4836.732,N,00228.698,E,1,12,1.0,0.0,M,0.0,M,,*66
$GPGSA,A,3,01,02,03,04,05,06,07,08,09,10,11,12,1.0,1.0,1.0*30
$GPRMC,150953.461,A,4836.732,N,00228.698,E,117.4,066.5,231223,000.0,W*77
$GPGGA,150954.461,4836.749,N,00228.739,E,1,12,1.0,0.0,M,0.0,M,,*67
$GPGSA,A,3,01,02,03,04,05,06,07,08,09,10,11,12,1.0,1.0,1.0*30
$GPRMC,150954.461,A,4836.749,N,00228.739,E,113.2,072.9,231223,000.0,W*7D
$GPGGA,150955.461,4836.763,N,00228.782,E,1,12,1.0,0.0,M,0.0,M,,*6E
$GPGSA,A,3,01,02,03,04,05,06,07,08,09,10,11,12,1.0,1.0,1.0*30
$GPRMC,150955.461,A,4836.763,N,00228.782,E,046.7,060.0,231223,000.0,W*7A
$GPGGA,150956.461,4836.771,N,00228.797,E,1,12,1.0,0.0,M,0.0,M,,*6A
$GPGSA,A,3,01,02,03,04,05,06,07,08,09,10,11,12,1.0,1.0,1.0*30
$GPRMC,150956.461,A,4836.771,N,00228.797,E,083.9,014.1,231223,000.0,W*7B
$GPGGA,150957.461,4836.794,N,00228.803,E,1,12,1.0,0.0,M,0.0,M,,*62
$GPGSA,A,3,01,02,03,04,05,06,07,08,09,10,11,12,1.0,1.0,1.0*30
$GPRMC,150957.461,A,4836.794,N,00228.803,E,090.2,014.6,231223,000.0,W*7D
$GPGGA,150958.461,4836.819,N,00228.809,E,1,12,1.0,0.0,M,0.0,M,,*6D
$GPGSA,A,3,01,02,03,04,05,06,07,08,09,10,11,12,1.0,1.0,1.0*30
$GPRMC,150958.461,A,4836.819,N,00228.809,E,031.3,016.8,231223,000.0,W*74
$GPGGA,150959.461,4836.827,N,00228.812,E,1,12,1.0,0.0,M,0.0,M,,*6B
$GPGSA,A,3,01,02,03,04,05,06,07,08,09,10,11,12,1.0,1.0,1.0*30
$GPRMC,150959.461,A,4836.827,N,00228.812,E,031.3,016.8,231223,000.0,W*72
